%  GPST                  latitude(deg) longitude(deg)  height(m)   Q  ns   sdn(m)   sde(m)   sdu(m)  sdne(m)  sdeu(m)  sdun(m) age(s)  ratio
2020/12/24 22:07:60.000   40.097017376 -105.147247840  1578.5228   2  19   1.2962    1.3039   2.7386  -0.1453   0.9514  -0.6157   0.01    0.0
2020/12/24 22:08:01.005   40.097017081 -105.147247175  1578.6375   2  19   0.9324    0.9052   1.8986   0.1703   0.5448  -0.2865   0.00    0.0
2020/12/24 22:08:02.005   40.097017068 -105.147247319  1578.6073   2  19   0.7767    0.7577   1.5869   0.1315   0.4771  -0.2572   0.00    0.0
2020/12/24 22:08:03.005   40.097017183 -105.147247352  1578.5995   2  19   0.6791    0.6647   1.3900   0.1088   0.4278  -0.2344   0.00    0.0
2020/12/24 22:08:04.005   40.097017150 -105.147247406  1578.5544   2  19   0.6104    0.5991   1.2508   0.0932   0.3903  -0.2170   0.00    0.0
2020/12/24 22:08:05.005   40.097017231 -105.147247344  1578.5316   2  19   0.5585    0.5497   1.1452   0.0814   0.3607  -0.2035   0.00    0.0
2020/12/24 22:08:06.005   40.097017068 -105.147247368  1578.4902   2  19   0.5174    0.5107   1.0614   0.0718   0.3366  -0.1928   0.00    0.0
2020/12/24 22:08:07.005   40.097016859 -105.147247505  1578.4659   2  19   0.4838    0.4789   0.9925   0.0636   0.3163  -0.1841   0.00    0.0
2020/12/24 22:08:08.005   40.097016676 -105.147247742  1578.4527   2  19   0.4555    0.4524   0.9344   0.0562   0.2990  -0.1770   0.01    0.0
2020/12/24 22:08:09.005   40.097016629 -105.147247866  1578.4646   2  19   0.4312    0.4297   0.8845   0.0494   0.2839  -0.1710   0.01    0.0
2020/12/24 22:08:10.005   40.097016563 -105.147248030  1578.4364   2  19   0.4101    0.4100   0.8408   0.0427   0.2706  -0.1660   0.01    0.0
2020/12/24 22:08:11.005   40.097016616 -105.147248043  1578.4207   2  19   0.3913    0.3928   0.8021   0.0360   0.2587  -0.1617   0.01    0.0
2020/12/24 22:08:12.005   40.097016510 -105.147248097  1578.4182   2  19   0.3746    0.3775   0.7674   0.0290   0.2480  -0.1580   0.01    0.0
2020/12/24 22:08:13.005   40.097016475 -105.147248001  1578.4516   2  19   0.3594    0.3638   0.7361   0.0208   0.2382  -0.1547   0.01    0.0
2020/12/24 22:08:14.005   40.097016478 -105.147247964  1578.4614   2  19   0.3456    0.3514   0.7074   0.0084   0.2293  -0.1518   0.01    0.0
2020/12/24 22:08:15.005   40.097016567 -105.147247947  1578.4721   2  19   0.3330    0.3402   0.6811  -0.0160   0.2211  -0.1492   0.01    0.0
2020/12/24 22:08:16.005   40.097016705 -105.147247804  1578.4913   2  21   0.3213    0.3286   0.6557  -0.0249   0.2161  -0.1466   0.00    0.0
2020/12/24 22:08:17.005   40.097016732 -105.147247796  1578.5106   2  21   0.3105    0.3188   0.6327  -0.0302   0.2099  -0.1443   0.00    0.0
2020/12/24 22:08:18.005   40.097016776 -105.147247867  1578.5218   2  21   0.3004    0.3097   0.6112  -0.0343   0.2041  -0.1423   0.00    0.0
2020/12/24 22:08:19.005   40.097016907 -105.147247895  1578.5549   2  21   0.2910    0.3014   0.5912  -0.0376   0.1985  -0.1403   0.00    0.0
2020/12/24 22:08:20.005   40.097016914 -105.147247974  1578.5642   2  21   0.2822    0.2936   0.5724  -0.0404   0.1931  -0.1385   0.00    0.0
2020/12/24 22:08:21.005   40.097017023 -105.147248056  1578.5962   2  21   0.2738    0.2864   0.5548  -0.0427   0.1881  -0.1368   0.00    0.0
2020/12/24 22:08:22.005   40.097017070 -105.147248234  1578.5943   2  21   0.2660    0.2796   0.5381  -0.0448   0.1832  -0.1352   0.00    0.0
2020/12/24 22:08:23.005   40.097017228 -105.147248381  1578.5941   2  21   0.2585    0.2733   0.5223  -0.0465   0.1785  -0.1336   0.00    0.0
2020/12/24 22:08:24.005   40.097017395 -105.147248475  1578.5995   2  21   0.2514    0.2673   0.5074  -0.0481   0.1741  -0.1321   0.00    0.0
2020/12/24 22:08:25.005   40.097017488 -105.147248559  1578.5966   2  21   0.2447    0.2617   0.4931  -0.0495   0.1698  -0.1306   0.00    0.0
2020/12/24 22:08:26.005   40.097017606 -105.147248654  1578.5843   2  21   0.2383    0.2564   0.4796  -0.0507   0.1658  -0.1291   0.00    0.0
2020/12/24 22:08:27.005   40.097017745 -105.147248747  1578.5795   2  21   0.2321    0.2513   0.4667  -0.0517   0.1618  -0.1277   0.00    0.0
2020/12/24 22:08:28.005   40.097017915 -105.147248802  1578.5642   2  21   0.2263    0.2465   0.4544  -0.0527   0.1581  -0.1263   0.00    0.0
2020/12/24 22:08:29.005   40.097018077 -105.147248866  1578.5728   2  21   0.2207    0.2420   0.4426  -0.0535   0.1545  -0.1249   0.00    0.0
2020/12/24 22:08:30.005   40.097023872 -105.147249846  1578.1212   1  21   0.0047    0.0045   0.0095   0.0005   0.0035  -0.0016   0.00    3.4
2020/12/24 22:08:31.005   40.097023887 -105.147249832  1578.1228   1  21   0.0047    0.0045   0.0095   0.0005   0.0035  -0.0016   0.00    3.5
2020/12/24 22:08:32.005   40.097023885 -105.147249845  1578.1229   1  21   0.0047    0.0045   0.0095   0.0005   0.0035  -0.0016   0.01    3.6
2020/12/24 22:08:33.005   40.097023882 -105.147249860  1578.1219   1  21   0.0047    0.0045   0.0095   0.0005   0.0035  -0.0016   0.01    3.6
2020/12/24 22:08:34.005   40.097023879 -105.147249845  1578.1216   1  21   0.0047    0.0045   0.0095   0.0005   0.0035  -0.0016   0.01    3.7
2020/12/24 22:08:35.005   40.097023883 -105.147249840  1578.1233   1  21   0.0047    0.0045   0.0095   0.0005   0.0035  -0.0016   0.01    3.7
2020/12/24 22:08:36.005   40.097023882 -105.147249848  1578.1233   1  21   0.0047    0.0045   0.0095   0.0005   0.0035  -0.0016   0.01    3.7
2020/12/24 22:08:37.005   40.097023886 -105.147249852  1578.1235   1  21   0.0047    0.0045   0.0095   0.0005   0.0035  -0.0016   0.01    3.8
2020/12/24 22:08:38.005   40.097023882 -105.147249851  1578.1220   1  21   0.0047    0.0045   0.0095   0.0005   0.0035  -0.0016   0.01    3.8
2020/12/24 22:08:39.005   40.097023895 -105.147249854  1578.1256   1  21   0.0047    0.0045   0.0095   0.0005   0.0035  -0.0016   0.01    3.8
2020/12/24 22:08:40.005   40.097023894 -105.147249858  1578.1236   1  21   0.0047    0.0045   0.0095   0.0005   0.0035  -0.0016   0.01    3.8
2020/12/24 22:08:41.005   40.097023888 -105.147249865  1578.1246   1  21   0.0047    0.0045   0.0095   0.0005   0.0035  -0.0016   0.01    3.8
2020/12/24 22:08:42.005   40.097023896 -105.147249855  1578.1245   1  21   0.0047    0.0045   0.0095   0.0005   0.0035  -0.0016   0.01    3.9
2020/12/24 22:08:43.005   40.097023893 -105.147249855  1578.1241   1  21   0.0047    0.0045   0.0095   0.0005   0.0035  -0.0016   0.01    3.9
2020/12/24 22:08:44.005   40.097023901 -105.147249863  1578.1267   1  21   0.0047    0.0045   0.0095   0.0005   0.0035  -0.0016   0.01    3.9
2020/12/24 22:08:45.005   40.097023903 -105.147249848  1578.1267   1  21   0.0047    0.0045   0.0095   0.0005   0.0035  -0.0016   0.01    3.9
2020/12/24 22:08:46.005   40.097023908 -105.147249856  1578.1288   1  21   0.0047    0.0045   0.0095   0.0005   0.0035  -0.0016   0.01    3.9
2020/12/24 22:08:47.005   40.097023904 -105.147249860  1578.1285   1  21   0.0047    0.0045   0.0095   0.0005   0.0035  -0.0016   0.01    3.9
2020/12/24 22:08:48.005   40.097023903 -105.147249851  1578.1266   1  21   0.0047    0.0045   0.0095   0.0005   0.0035  -0.0016   0.01    4.0
2020/12/24 22:08:49.005   40.097023909 -105.147249860  1578.1273   1  21   0.0047    0.0045   0.0095   0.0005   0.0035  -0.0016   0.01    4.0
2020/12/24 22:08:50.005   40.097023901 -105.147249866  1578.1279   1  21   0.0047    0.0045   0.0095   0.0006   0.0035  -0.0016   0.01    4.1
2020/12/24 22:08:51.005   40.097023913 -105.147249852  1578.1291   1  21   0.0047    0.0045   0.0095   0.0006   0.0035  -0.0016   0.01    4.1
2020/12/24 22:08:52.005   40.097023905 -105.147249854  1578.1291   1  21   0.0047    0.0045   0.0095   0.0006   0.0035  -0.0016   0.01    4.2
2020/12/24 22:08:53.005   40.097023897 -105.147249853  1578.1278   1  21   0.0047    0.0045   0.0095   0.0006   0.0035  -0.0016   0.01    4.2
2020/12/24 22:08:54.005   40.097023903 -105.147249856  1578.1294   1  21   0.0047    0.0045   0.0095   0.0006   0.0035  -0.0016   0.01    4.2
2020/12/24 22:08:55.005   40.097023902 -105.147249838  1578.1301   1  21   0.0047    0.0045   0.0095   0.0006   0.0035  -0.0016   0.01    4.3
2020/12/24 22:08:56.005   40.097023903 -105.147249846  1578.1289   1  21   0.0047    0.0045   0.0095   0.0006   0.0035  -0.0016   0.01    4.3
2020/12/24 22:08:57.005   40.097023903 -105.147249852  1578.1278   1  21   0.0047    0.0045   0.0095   0.0006   0.0035  -0.0016   0.01    4.3
2020/12/24 22:08:58.005   40.097023907 -105.147249861  1578.1298   1  21   0.0047    0.0045   0.0095   0.0006   0.0035  -0.0016   0.01    4.4
2020/12/24 22:08:59.005   40.097023894 -105.147249859  1578.1307   1  21   0.0047    0.0045   0.0095   0.0006   0.0035  -0.0016   0.01    4.4
2020/12/24 22:09:00.005   40.097023900 -105.147249850  1578.1309   1  21   0.0047    0.0045   0.0095   0.0006   0.0035  -0.0016   0.01    4.4
2020/12/24 22:09:01.005   40.097023902 -105.147249844  1578.1286   1  21   0.0047    0.0045   0.0095   0.0006   0.0035  -0.0016   0.00    4.4
2020/12/24 22:09:02.005   40.097023895 -105.147249844  1578.1289   1  21   0.0047    0.0045   0.0095   0.0006   0.0035  -0.0016   0.00    4.5
2020/12/24 22:09:03.005   40.097023889 -105.147249847  1578.1310   1  21   0.0047    0.0045   0.0095   0.0006   0.0035  -0.0016   0.00    4.5
2020/12/24 22:09:04.005   40.097023896 -105.147249856  1578.1277   1  21   0.0047    0.0045   0.0095   0.0006   0.0035  -0.0016   0.00    4.5
2020/12/24 22:09:05.005   40.097023912 -105.147249844  1578.1313   1  21   0.0047    0.0045   0.0095   0.0006   0.0035  -0.0016   0.00    4.5
2020/12/24 22:09:06.005   40.097023897 -105.147249838  1578.1301   1  21   0.0047    0.0045   0.0095   0.0006   0.0035  -0.0016   0.00    4.6
2020/12/24 22:09:07.005   40.097023889 -105.147249850  1578.1312   1  21   0.0047    0.0045   0.0095   0.0006   0.0035  -0.0016   0.00    4.6
2020/12/24 22:09:08.005   40.097023904 -105.147249838  1578.1288   1  21   0.0047    0.0045   0.0095   0.0006   0.0035  -0.0016   0.01    4.6
2020/12/24 22:09:09.005   40.097023894 -105.147249839  1578.1291   1  21   0.0047    0.0045   0.0095   0.0006   0.0035  -0.0016   0.01    4.6
2020/12/24 22:09:10.005   40.097023900 -105.147249834  1578.1302   1  21   0.0047    0.0045   0.0095   0.0006   0.0035  -0.0016   0.01    4.6
2020/12/24 22:09:11.005   40.097023888 -105.147249841  1578.1279   1  21   0.0047    0.0045   0.0095   0.0006   0.0035  -0.0016   0.01    4.6
2020/12/24 22:09:12.005   40.097023890 -105.147249833  1578.1291   1  21   0.0047    0.0045   0.0095   0.0006   0.0035  -0.0016   0.01    4.7
2020/12/24 22:09:13.005   40.097023899 -105.147249840  1578.1291   1  21   0.0047    0.0045   0.0095   0.0006   0.0035  -0.0016   0.01    4.7
2020/12/24 22:09:14.005   40.097023894 -105.147249831  1578.1296   1  21   0.0047    0.0045   0.0095   0.0006   0.0035  -0.0016   0.01    4.7
2020/12/24 22:09:15.005   40.097023899 -105.147249831  1578.1285   1  21   0.0047    0.0045   0.0095   0.0006   0.0035  -0.0016   0.01    4.7
2020/12/24 22:09:16.005   40.097023890 -105.147249825  1578.1309   1  21   0.0047    0.0045   0.0095   0.0006   0.0035  -0.0016   0.00    4.7
2020/12/24 22:09:17.005   40.097023901 -105.147249830  1578.1298   1  21   0.0047    0.0045   0.0095   0.0006   0.0035  -0.0016   0.00    4.8
2020/12/24 22:09:18.005   40.097023908 -105.147249827  1578.1300   1  21   0.0047    0.0045   0.0095   0.0006   0.0035  -0.0016   0.00    4.8
2020/12/24 22:09:19.005   40.097023908 -105.147249837  1578.1291   1  21   0.0047    0.0045   0.0095   0.0006   0.0035  -0.0016   0.00    4.8
2020/12/24 22:09:20.005   40.097023891 -105.147249832  1578.1308   1  21   0.0047    0.0045   0.0095   0.0006   0.0035  -0.0016   0.00    4.8
2020/12/24 22:09:21.005   40.097023911 -105.147249833  1578.1293   1  21   0.0047    0.0045   0.0095   0.0006   0.0035  -0.0016   0.00    4.8
2020/12/24 22:09:22.005   40.097023902 -105.147249837  1578.1278   1  21   0.0047    0.0045   0.0095   0.0006   0.0035  -0.0016   0.00    4.9
2020/12/24 22:09:23.005   40.097023903 -105.147249834  1578.1288   1  21   0.0047    0.0045   0.0095   0.0006   0.0035  -0.0016   0.00    4.9
2020/12/24 22:09:24.005   40.097023902 -105.147249832  1578.1295   1  21   0.0047    0.0045   0.0095   0.0006   0.0035  -0.0016   0.00    4.9
2020/12/24 22:09:25.005   40.097023907 -105.147249839  1578.1298   1  21   0.0047    0.0045   0.0095   0.0006   0.0035  -0.0016   0.00    4.9
2020/12/24 22:09:26.005   40.097023901 -105.147249845  1578.1302   1  21   0.0047    0.0045   0.0095   0.0006   0.0035  -0.0016   0.00    4.9
2020/12/24 22:09:27.005   40.097023907 -105.147249838  1578.1307   1  21   0.0047    0.0045   0.0095   0.0006   0.0035  -0.0015   0.00    4.9
2020/12/24 22:09:28.005   40.097023905 -105.147249840  1578.1344   1  21   0.0047    0.0045   0.0095   0.0006   0.0035  -0.0015   0.00    4.9
2020/12/24 22:09:29.005   40.097023909 -105.147249840  1578.1335   1  21   0.0047    0.0045   0.0095   0.0006   0.0035  -0.0015   0.00    5.0
2020/12/24 22:09:30.005   40.097023909 -105.147249838  1578.1317   1  21   0.0047    0.0045   0.0095   0.0006   0.0035  -0.0015   0.00    5.0
2020/12/24 22:09:31.005   40.097023902 -105.147249842  1578.1335   1  21   0.0047    0.0045   0.0095   0.0006   0.0035  -0.0015   0.00    5.0
2020/12/24 22:09:32.005   40.097023892 -105.147249844  1578.1337   1  21   0.0047    0.0045   0.0095   0.0006   0.0035  -0.0015   0.01    5.0
2020/12/24 22:09:33.005   40.097023904 -105.147249836  1578.1335   1  21   0.0047    0.0045   0.0095   0.0006   0.0035  -0.0015   0.01    5.0
2020/12/24 22:09:34.005   40.097023900 -105.147249840  1578.1329   1  21   0.0047    0.0045   0.0095   0.0006   0.0035  -0.0015   0.01    5.0
2020/12/24 22:09:35.005   40.097023900 -105.147249844  1578.1347   1  21   0.0047    0.0045   0.0095   0.0006   0.0035  -0.0015   0.01    5.0
2020/12/24 22:09:36.005   40.097023900 -105.147249839  1578.1330   1  21   0.0047    0.0045   0.0095   0.0006   0.0035  -0.0015   0.01    5.1
2020/12/24 22:09:37.005   40.097023895 -105.147249833  1578.1340   1  21   0.0047    0.0045   0.0095   0.0006   0.0035  -0.0015   0.01    5.1
2020/12/24 22:09:38.005   40.097023892 -105.147249833  1578.1341   1  21   0.0047    0.0045   0.0095   0.0006   0.0035  -0.0015   0.01    5.1
2020/12/24 22:09:39.005   40.097023895 -105.147249847  1578.1358   1  21   0.0047    0.0045   0.0095   0.0006   0.0035  -0.0015   0.01    5.1
2020/12/24 22:09:40.005   40.097023894 -105.147249846  1578.1341   1  21   0.0047    0.0045   0.0095   0.0006   0.0035  -0.0015   0.01    5.1
2020/12/24 22:09:41.005   40.097023898 -105.147249843  1578.1352   1  21   0.0047    0.0045   0.0095   0.0006   0.0035  -0.0015   0.01    5.2
2020/12/24 22:09:42.005   40.097023897 -105.147249842  1578.1354   1  21   0.0047    0.0045   0.0095   0.0006   0.0035  -0.0015   0.01    5.2
2020/12/24 22:09:43.005   40.097023901 -105.147249848  1578.1356   1  21   0.0047    0.0045   0.0095   0.0006   0.0035  -0.0015   0.01    5.2
2020/12/24 22:09:44.005   40.097023893 -105.147249854  1578.1350   1  21   0.0047    0.0045   0.0095   0.0006   0.0035  -0.0015   0.01    5.2
2020/12/24 22:09:45.005   40.097023887 -105.147249833  1578.1365   1  21   0.0047    0.0045   0.0095   0.0006   0.0035  -0.0015   0.01    5.2
2020/12/24 22:09:46.005   40.097023892 -105.147249844  1578.1365   1  21   0.0047    0.0045   0.0095   0.0006   0.0035  -0.0015   0.01    5.2
2020/12/24 22:09:47.005   40.097023891 -105.147249845  1578.1354   1  21   0.0047    0.0045   0.0095   0.0006   0.0035  -0.0015   0.01    5.3
2020/12/24 22:09:48.005   40.097023889 -105.147249844  1578.1369   1  21   0.0047    0.0045   0.0095   0.0006   0.0035  -0.0015   0.01    5.3
2020/12/24 22:09:49.006   40.097023891 -105.147249844  1578.1366   1  21   0.0047    0.0045   0.0095   0.0006   0.0035  -0.0015   0.01    5.3
2020/12/24 22:09:50.006   40.097023888 -105.147249851  1578.1365   1  21   0.0047    0.0045   0.0095   0.0006   0.0035  -0.0015   0.01    5.3
2020/12/24 22:09:51.006   40.097023899 -105.147249851  1578.1360   1  21   0.0047    0.0045   0.0095   0.0006   0.0035  -0.0015   0.01    5.3
2020/12/24 22:09:52.006   40.097023884 -105.147249844  1578.1387   1  21   0.0047    0.0045   0.0095   0.0006   0.0035  -0.0015   0.01    5.3
2020/12/24 22:09:53.006   40.097023882 -105.147249844  1578.1390   1  21   0.0047    0.0045   0.0095   0.0006   0.0035  -0.0015   0.01    5.3
2020/12/24 22:09:54.006   40.097023883 -105.147249851  1578.1369   1  21   0.0047    0.0045   0.0095   0.0006   0.0035  -0.0015   0.01    5.3
2020/12/24 22:09:55.006   40.097023891 -105.147249873  1578.1385   1  21   0.0047    0.0045   0.0095   0.0006   0.0035  -0.0015   0.01    5.4
2020/12/24 22:09:56.006   40.097023891 -105.147249872  1578.1387   1  21   0.0047    0.0045   0.0095   0.0006   0.0035  -0.0015   0.01    5.4
2020/12/24 22:09:57.006   40.097023892 -105.147249858  1578.1384   1  21   0.0047    0.0045   0.0095   0.0006   0.0035  -0.0015   0.01    5.4
2020/12/24 22:09:58.006   40.097023891 -105.147249867  1578.1363   1  21   0.0047    0.0045   0.0095   0.0006   0.0035  -0.0015   0.01    5.4
2020/12/24 22:09:59.006   40.097023884 -105.147249864  1578.1357   1  21   0.0047    0.0045   0.0095   0.0006   0.0035  -0.0015   0.01    5.4
2020/12/24 22:10:00.006   40.097023892 -105.147249869  1578.1373   1  21   0.0047    0.0045   0.0095   0.0006   0.0035  -0.0015   0.01    5.4
2020/12/24 22:10:01.006   40.097023893 -105.147249867  1578.1358   1  21   0.0047    0.0045   0.0095   0.0006   0.0035  -0.0015   0.01    5.4
2020/12/24 22:10:02.006   40.097023890 -105.147249866  1578.1356   1  21   0.0047    0.0045   0.0095   0.0006   0.0035  -0.0015   0.01    5.4
2020/12/24 22:10:03.006   40.097023889 -105.147249860  1578.1362   1  21   0.0047    0.0045   0.0095   0.0006   0.0035  -0.0015   0.01    5.4
2020/12/24 22:10:04.006   40.097023893 -105.147249873  1578.1342   1  21   0.0047    0.0045   0.0095   0.0006   0.0035  -0.0015   0.01    5.4
2020/12/24 22:10:05.006   40.097023894 -105.147249868  1578.1354   1  21   0.0047    0.0045   0.0095   0.0006   0.0035  -0.0015   0.01    5.5
2020/12/24 22:10:06.006   40.097023893 -105.147249869  1578.1334   1  21   0.0047    0.0045   0.0095   0.0006   0.0035  -0.0015   0.01    5.5
2020/12/24 22:10:07.006   40.097023894 -105.147249863  1578.1341   1  21   0.0047    0.0045   0.0095   0.0006   0.0035  -0.0015   0.01    5.5
2020/12/24 22:10:08.006   40.097023889 -105.147249861  1578.1343   1  21   0.0047    0.0045   0.0095   0.0006   0.0035  -0.0015   0.01    5.5
2020/12/24 22:10:09.006   40.097023893 -105.147249869  1578.1335   1  21   0.0047    0.0045   0.0095   0.0006   0.0035  -0.0015   0.01    5.5
2020/12/24 22:10:10.006   40.097023893 -105.147249858  1578.1347   1  21   0.0047    0.0045   0.0095   0.0006   0.0035  -0.0015   0.01    5.5
2020/12/24 22:10:11.006   40.097023902 -105.147249857  1578.1339   1  21   0.0047    0.0045   0.0095   0.0006   0.0035  -0.0015   0.01    5.5
2020/12/24 22:10:12.006   40.097023907 -105.147249861  1578.1342   1  21   0.0047    0.0045   0.0095   0.0006   0.0035  -0.0015   0.01    5.5
2020/12/24 22:10:13.006   40.097023888 -105.147249863  1578.1338   1  21   0.0047    0.0045   0.0095   0.0006   0.0035  -0.0015   0.01    5.5
2020/12/24 22:10:14.006   40.097023897 -105.147249854  1578.1334   1  21   0.0047    0.0045   0.0095   0.0006   0.0035  -0.0015   0.01    5.5
2020/12/24 22:10:15.006   40.097023889 -105.147249859  1578.1343   1  21   0.0047    0.0045   0.0095   0.0006   0.0035  -0.0015   0.01    5.5
2020/12/24 22:10:16.006   40.097023892 -105.147249855  1578.1336   1  21   0.0047    0.0045   0.0095   0.0006   0.0035  -0.0015   0.01    5.5
2020/12/24 22:10:17.006   40.097023885 -105.147249856  1578.1335   1  21   0.0047    0.0045   0.0095   0.0006   0.0035  -0.0015   0.01    5.5
2020/12/24 22:10:18.006   40.097023902 -105.147249860  1578.1324   1  21   0.0047    0.0045   0.0095   0.0006   0.0035  -0.0015   0.01    5.5
2020/12/24 22:10:19.006   40.097023897 -105.147249860  1578.1318   1  21   0.0047    0.0045   0.0095   0.0006   0.0035  -0.0015   0.01    5.5
2020/12/24 22:10:20.006   40.097023886 -105.147249852  1578.1329   1  21   0.0047    0.0045   0.0095   0.0006   0.0035  -0.0015   0.01    5.5
2020/12/24 22:10:21.006   40.097023895 -105.147249846  1578.1324   1  21   0.0047    0.0045   0.0095   0.0006   0.0035  -0.0014   0.01    5.6
2020/12/24 22:10:22.006   40.097023884 -105.147249853  1578.1330   1  21   0.0047    0.0045   0.0095   0.0006   0.0035  -0.0014   0.01    5.6
2020/12/24 22:10:23.006   40.097023883 -105.147249848  1578.1300   1  21   0.0047    0.0045   0.0095   0.0006   0.0035  -0.0014   0.01    5.6
2020/12/24 22:10:24.006   40.097023892 -105.147249866  1578.1314   1  21   0.0047    0.0045   0.0095   0.0006   0.0035  -0.0014   0.01    5.6
2020/12/24 22:10:25.006   40.097023877 -105.147249845  1578.1307   1  21   0.0047    0.0045   0.0095   0.0006   0.0035  -0.0014   0.01    5.6
2020/12/24 22:10:26.006   40.097023884 -105.147249846  1578.1310   1  21   0.0047    0.0045   0.0095   0.0006   0.0035  -0.0014   0.01    5.6
2020/12/24 22:10:27.006   40.097023880 -105.147249851  1578.1311   1  21   0.0047    0.0045   0.0095   0.0006   0.0035  -0.0014   0.01    5.6
2020/12/24 22:10:28.006   40.097023880 -105.147249857  1578.1294   1  21   0.0047    0.0045   0.0095   0.0006   0.0035  -0.0014   0.01    5.7
2020/12/24 22:10:29.006   40.097023871 -105.147249843  1578.1315   1  21   0.0047    0.0045   0.0094   0.0006   0.0035  -0.0014   0.01    5.7
2020/12/24 22:10:30.006   40.097023882 -105.147249836  1578.1324   1  21   0.0047    0.0045   0.0094   0.0006   0.0035  -0.0014   0.01    5.7
2020/12/24 22:10:31.006   40.097023886 -105.147249838  1578.1309   1  21   0.0047    0.0045   0.0094   0.0006   0.0035  -0.0014   0.01    5.7
2020/12/24 22:10:32.006   40.097023897 -105.147249847  1578.1311   1  21   0.0047    0.0045   0.0094   0.0006   0.0035  -0.0014   0.01    5.7
2020/12/24 22:10:33.006   40.097023890 -105.147249844  1578.1330   1  21   0.0047    0.0045   0.0094   0.0006   0.0035  -0.0014   0.01    5.7
2020/12/24 22:10:34.006   40.097023887 -105.147249848  1578.1301   1  21   0.0047    0.0045   0.0094   0.0006   0.0035  -0.0014   0.01    5.7
2020/12/24 22:10:35.006   40.097023874 -105.147249862  1578.1304   1  21   0.0047    0.0045   0.0094   0.0006   0.0035  -0.0014   0.01    5.7
2020/12/24 22:10:36.006   40.097023884 -105.147249851  1578.1328   1  21   0.0047    0.0045   0.0094   0.0006   0.0035  -0.0014   0.01    5.7
2020/12/24 22:10:37.006   40.097023869 -105.147249844  1578.1312   1  21   0.0047    0.0045   0.0094   0.0006   0.0035  -0.0014   0.01    5.8
2020/12/24 22:10:38.006   40.097023880 -105.147249851  1578.1331   1  21   0.0047    0.0045   0.0094   0.0006   0.0035  -0.0014   0.01    5.8
2020/12/24 22:10:39.006   40.097023875 -105.147249851  1578.1339   1  21   0.0047    0.0045   0.0094   0.0006   0.0035  -0.0014   0.01    5.8
2020/12/24 22:10:40.006   40.097023883 -105.147249846  1578.1332   1  21   0.0047    0.0045   0.0094   0.0006   0.0035  -0.0014   0.01    5.8
2020/12/24 22:10:41.006   40.097023877 -105.147249849  1578.1323   1  21   0.0047    0.0045   0.0094   0.0006   0.0035  -0.0014   0.01    5.8
2020/12/24 22:10:42.006   40.097023875 -105.147249850  1578.1303   1  21   0.0047    0.0045   0.0094   0.0006   0.0035  -0.0014   0.01    5.8
2020/12/24 22:10:43.006   40.097023868 -105.147249860  1578.1285   1  21   0.0047    0.0045   0.0094   0.0006   0.0035  -0.0014   0.01    5.8
2020/12/24 22:10:44.006   40.097023877 -105.147249843  1578.1323   1  21   0.0047    0.0045   0.0094   0.0006   0.0035  -0.0014   0.01    5.8
2020/12/24 22:10:45.006   40.097023866 -105.147249851  1578.1319   1  21   0.0047    0.0045   0.0094   0.0006   0.0035  -0.0014   0.01    5.8
2020/12/24 22:10:46.006   40.097023873 -105.147249854  1578.1307   1  21   0.0047    0.0045   0.0094   0.0006   0.0035  -0.0014   0.01    5.8
2020/12/24 22:10:47.006   40.097023872 -105.147249846  1578.1314   1  21   0.0047    0.0045   0.0094   0.0006   0.0035  -0.0014   0.01    5.8
2020/12/24 22:10:48.006   40.097023871 -105.147249848  1578.1314   1  21   0.0047    0.0045   0.0094   0.0006   0.0035  -0.0014   0.01    5.8
2020/12/24 22:10:49.006   40.097023861 -105.147249849  1578.1301   1  21   0.0047    0.0045   0.0094   0.0006   0.0035  -0.0014   0.01    5.8
2020/12/24 22:10:50.006   40.097023866 -105.147249855  1578.1309   1  21   0.0047    0.0045   0.0094   0.0006   0.0035  -0.0014   0.01    5.8
2020/12/24 22:10:51.006   40.097023876 -105.147249854  1578.1304   1  21   0.0047    0.0045   0.0094   0.0006   0.0035  -0.0014   0.01    5.8
2020/12/24 22:10:52.006   40.097023867 -105.147249865  1578.1289   1  21   0.0047    0.0045   0.0094   0.0006   0.0035  -0.0014   0.01    5.8
2020/12/24 22:10:53.006   40.097023861 -105.147249860  1578.1301   1  21   0.0047    0.0045   0.0094   0.0006   0.0035  -0.0014   0.01    5.8
2020/12/24 22:10:54.006   40.097023880 -105.147249863  1578.1312   1  21   0.0047    0.0045   0.0094   0.0006   0.0035  -0.0014   0.01    5.9
2020/12/24 22:10:55.006   40.097023877 -105.147249853  1578.1312   1  21   0.0047    0.0045   0.0094   0.0006   0.0035  -0.0014   0.01    5.9
2020/12/24 22:10:56.006   40.097023862 -105.147249862  1578.1297   1  21   0.0047    0.0045   0.0094   0.0006   0.0035  -0.0014   0.01    5.9
2020/12/24 22:10:57.006   40.097023865 -105.147249855  1578.1300   1  21   0.0047    0.0045   0.0094   0.0006   0.0035  -0.0014   0.01    5.9
2020/12/24 22:10:58.006   40.097023877 -105.147249859  1578.1308   1  21   0.0047    0.0045   0.0094   0.0006   0.0035  -0.0014   0.01    5.9
2020/12/24 22:10:59.006   40.097023871 -105.147249873  1578.1291   1  21   0.0047    0.0045   0.0094   0.0006   0.0035  -0.0014   0.01    5.9
2020/12/24 22:11:00.006   40.097023865 -105.147249858  1578.1325   1  21   0.0047    0.0045   0.0094   0.0006   0.0035  -0.0014   0.01    5.9
2020/12/24 22:11:01.006   40.097023870 -105.147249861  1578.1281   1  21   0.0047    0.0045   0.0094   0.0006   0.0035  -0.0014   0.01    5.9
2020/12/24 22:11:02.006   40.097023853 -105.147249851  1578.1294   1  21   0.0047    0.0045   0.0094   0.0006   0.0035  -0.0014   0.01    5.9
2020/12/24 22:11:03.006   40.097023875 -105.147249859  1578.1301   1  21   0.0047    0.0045   0.0094   0.0006   0.0035  -0.0014   0.01    5.9
2020/12/24 22:11:04.006   40.097023871 -105.147249865  1578.1315   1  21   0.0047    0.0045   0.0094   0.0006   0.0035  -0.0014   0.01    5.9
2020/12/24 22:11:05.006   40.097023877 -105.147249869  1578.1279   1  21   0.0047    0.0045   0.0094   0.0006   0.0035  -0.0014   0.01    5.9
2020/12/24 22:11:06.006   40.097023870 -105.147249883  1578.1278   1  21   0.0047    0.0045   0.0094   0.0006   0.0035  -0.0014   0.01    5.9
2020/12/24 22:11:07.006   40.097023869 -105.147249873  1578.1307   1  21   0.0047    0.0045   0.0094   0.0006   0.0035  -0.0014   0.01    5.9
2020/12/24 22:11:08.006   40.097023881 -105.147249876  1578.1290   1  21   0.0047    0.0045   0.0094   0.0006   0.0035  -0.0014   0.01    5.9
2020/12/24 22:11:09.006   40.097023882 -105.147249880  1578.1302   1  21   0.0047    0.0045   0.0094   0.0006   0.0035  -0.0014   0.01    6.0
2020/12/24 22:11:10.006   40.097023875 -105.147249878  1578.1336   1  21   0.0047    0.0045   0.0094   0.0006   0.0035  -0.0014   0.01    6.0
2020/12/24 22:11:11.006   40.097023871 -105.147249871  1578.1289   1  21   0.0047    0.0045   0.0094   0.0006   0.0035  -0.0014   0.01    6.0
2020/12/24 22:11:12.006   40.097023864 -105.147249879  1578.1308   1  21   0.0047    0.0045   0.0094   0.0006   0.0035  -0.0013   0.01    6.0
2020/12/24 22:11:13.006   40.097023857 -105.147249882  1578.1316   1  21   0.0047    0.0045   0.0094   0.0006   0.0035  -0.0013   0.01    6.0
2020/12/24 22:11:14.006   40.097023878 -105.147249886  1578.1295   1  21   0.0047    0.0045   0.0094   0.0006   0.0035  -0.0013   0.01    6.0
2020/12/24 22:11:15.006   40.097023868 -105.147249878  1578.1293   1  21   0.0047    0.0045   0.0094   0.0006   0.0035  -0.0013   0.01    6.0
2020/12/24 22:11:16.006   40.097023908 -105.147249867  1578.1274   1  21   0.0047    0.0045   0.0094   0.0006   0.0035  -0.0013   0.01    6.0
2020/12/24 22:11:17.006   40.097023917 -105.147249875  1578.1258   1  21   0.0047    0.0045   0.0094   0.0006   0.0035  -0.0013   0.01    6.0
2020/12/24 22:11:18.006   40.097023910 -105.147249858  1578.1300   1  21   0.0047    0.0045   0.0094   0.0006   0.0035  -0.0013   0.01    6.0
2020/12/24 22:11:19.006   40.097023909 -105.147249868  1578.1292   1  21   0.0047    0.0045   0.0094   0.0006   0.0035  -0.0013   0.01    6.0
2020/12/24 22:11:20.006   40.097023902 -105.147249866  1578.1298   1  21   0.0047    0.0044   0.0094   0.0006   0.0035  -0.0013   0.01    6.0
2020/12/24 22:11:21.006   40.097023895 -105.147249872  1578.1288   1  21   0.0047    0.0044   0.0094   0.0006   0.0034  -0.0013   0.01    6.0
2020/12/24 22:11:22.006   40.097023897 -105.147249869  1578.1289   1  21   0.0047    0.0044   0.0094   0.0006   0.0034  -0.0013   0.01    6.0
2020/12/24 22:11:23.006   40.097023902 -105.147249874  1578.1302   1  21   0.0047    0.0044   0.0094   0.0006   0.0034  -0.0013   0.01    6.0
2020/12/24 22:11:24.006   40.097023909 -105.147249876  1578.1277   1  21   0.0047    0.0044   0.0094   0.0006   0.0034  -0.0013   0.01    6.0
2020/12/24 22:11:25.006   40.097023898 -105.147249893  1578.1319   1  20   0.0047    0.0045   0.0095   0.0006   0.0033  -0.0013   0.01    7.7
2020/12/24 22:11:26.006   40.097023893 -105.147249850  1578.1329   1  20   0.0047    0.0045   0.0095   0.0006   0.0033  -0.0013   0.01    7.7
2020/12/24 22:11:27.006   40.097023993 -105.147248526  1578.1332   1  21   0.0047    0.0044   0.0094   0.0006   0.0034  -0.0013   0.01    6.0
2020/12/24 22:11:28.006   40.097024949 -105.147236527  1578.1536   1  21   0.0047    0.0044   0.0094   0.0006   0.0034  -0.0013   0.01    6.0
2020/12/24 22:11:29.006   40.097029182 -105.147206531  1578.2248   1  21   0.0047    0.0044   0.0094   0.0006   0.0034  -0.0013   0.01    6.0
2020/12/24 22:11:30.006   40.097036056 -105.147157305  1578.3110   1  19   0.0049    0.0046   0.0098  -0.0011   0.0030   0.0012   0.01    7.8
2020/12/24 22:11:31.006   40.097042034 -105.147091884  1578.4181   1  21   0.0049    0.0045   0.0096  -0.0010   0.0032   0.0011   0.01    6.2
2020/12/24 22:11:32.006   40.097045619 -105.147011765  1578.5278   1  20   0.0048    0.0046   0.0096  -0.0007   0.0032  -0.0003   0.01    7.8
2020/12/24 22:11:33.006   40.097047726 -105.146918098  1578.6498   1  21   0.0047    0.0046   0.0097  -0.0003   0.0030  -0.0009   0.01    9.5
2020/12/24 22:11:34.006   40.097048755 -105.146814183  1578.7526   1  20   0.0047    0.0046   0.0096  -0.0001   0.0031  -0.0010   0.01    9.5
2020/12/24 22:11:35.006   40.097049640 -105.146702189  1578.8569   1  18   0.0052    0.0050   0.0115  -0.0021   0.0047  -0.0039   0.01   20.3
2020/12/24 22:11:36.006   40.097051232 -105.146587900  1578.9826   1  19   0.0052    0.0050   0.0115  -0.0021   0.0047  -0.0039   0.01   20.8
2020/12/24 22:11:37.006   40.097052704 -105.146471148  1579.1455   1  19   0.0054    0.0052   0.0117  -0.0022   0.0043  -0.0037   0.01   17.0
2020/12/24 22:11:38.006   40.097053307 -105.146354946  1579.3102   1  18   0.0054    0.0051   0.0117  -0.0024   0.0045  -0.0036   0.01   22.0
2020/12/24 22:11:39.006   40.097052860 -105.146238199  1579.4611   1  18   0.0054    0.0051   0.0116  -0.0024   0.0045  -0.0035   0.01   22.4
2020/12/24 22:11:40.006   40.097050477 -105.146119140  1579.5616   1  19   0.0053    0.0050   0.0115  -0.0022   0.0047  -0.0037   0.01   22.9
2020/12/24 22:11:41.006   40.097045405 -105.145999138  1579.6806   1  21   0.0053    0.0051   0.0116  -0.0019   0.0045  -0.0040   0.01   19.3
2020/12/24 22:11:42.006   40.097038084 -105.145878081  1579.8148   1  20   0.0056    0.0052   0.0113  -0.0005   0.0035  -0.0030   0.01   27.5
2020/12/24 22:11:43.006   40.097027990 -105.145758089  1579.9521   1  20   0.0054    0.0050   0.0110  -0.0009   0.0036  -0.0026   0.01   29.3
2020/12/24 22:11:44.006   40.097014721 -105.145636360  1580.0749   1  20   0.0055    0.0051   0.0110   0.0009   0.0033  -0.0026   0.01   31.2
2020/12/24 22:11:45.006   40.096998421 -105.145513389  1580.2470   1  20   0.0065    0.0054   0.0120  -0.0028   0.0041  -0.0029   0.01   53.1
2020/12/24 22:11:46.006   40.096979748 -105.145386753  1580.5790   1  21   0.0064    0.0057   0.0131  -0.0014   0.0054   0.0029   0.01   61.2
2020/12/24 22:11:47.006   40.096960707 -105.145258257  1580.6426   1  21   0.0065    0.0077   0.0175  -0.0037   0.0097  -0.0050   0.01   62.3
2020/12/24 22:11:48.006   40.096941615 -105.145126785  1580.8085   1  21   0.0064    0.0074   0.0167  -0.0036   0.0093  -0.0051   0.01   57.0
2020/12/24 22:11:49.006   40.096925380 -105.144993047  1580.9594   1  19   0.0067    0.0073   0.0163  -0.0040   0.0088  -0.0048   0.01   57.1
2020/12/24 22:11:50.006   40.096915354 -105.144856715  1581.0861   1  19   0.0066    0.0088   0.0200  -0.0035   0.0117  -0.0038   0.01   57.5
2020/12/24 22:11:51.006   40.096910019 -105.144716559  1581.2489   1  21   0.0065    0.0077   0.0171  -0.0034   0.0096  -0.0035   0.01   57.5
2020/12/24 22:11:52.006   40.096906801 -105.144573311  1581.4523   1  21   0.0062    0.0068   0.0151  -0.0028   0.0081  -0.0032   0.01   57.4
2020/12/24 22:11:53.006   40.096905831 -105.144427823  1581.6469   1  21   0.0059    0.0063   0.0138  -0.0023   0.0072  -0.0023   0.01   57.5
2020/12/24 22:11:54.006   40.096906350 -105.144282273  1581.8726   1  21   0.0055    0.0060   0.0131  -0.0019   0.0066  -0.0019   0.01   57.7
2020/12/24 22:11:55.006   40.096907434 -105.144137570  1582.1021   1  21   0.0054    0.0057   0.0126  -0.0017   0.0062  -0.0016   0.01   57.8
2020/12/24 22:11:56.006   40.096908532 -105.143992829  1582.2395   1  19   0.0051    0.0050   0.0109   0.0003   0.0042   0.0010   0.01    3.5
2020/12/24 22:11:57.006   40.096909803 -105.143849329  1582.3286   1  18   0.0071    0.0054   0.0119  -0.0032   0.0031   0.0043   0.01    4.1
2020/12/24 22:11:58.006   40.096911498 -105.143708641  1582.3796   1  18   0.0085    0.0068   0.0122  -0.0019  -0.0017   0.0044   0.01    4.6
2020/12/24 22:11:59.006   40.096913642 -105.143569989  1582.4200   1  20   0.0119    0.0084   0.0132   0.0072   0.0025   0.0035   0.01    5.0
2020/12/24 22:12:00.006   40.096915622 -105.143433851  1582.4050   1  19   0.0116    0.0076   0.0164   0.0047   0.0058  -0.0066   0.01   46.6
2020/12/24 22:12:01.006   40.096917476 -105.143301257  1582.3492   1  21   0.0106    0.0069   0.0154   0.0038   0.0050  -0.0065   0.01   46.8
2020/12/24 22:12:02.006   40.096918951 -105.143168964  1582.2896   1  21   0.0080    0.0064   0.0136   0.0034   0.0048  -0.0064   0.01    6.9
2020/12/24 22:12:03.006   40.096920040 -105.143036617  1582.1664   1  20   0.0074    0.0062   0.0131   0.0031   0.0045  -0.0059   0.01    8.1
2020/12/24 22:12:04.006   40.096920345 -105.142904932  1581.9637   1  19   0.0090    0.0058   0.0126  -0.0028   0.0010  -0.0040   0.01    5.6
2020/12/24 22:12:05.006   40.096920616 -105.142775454  1581.7501   1  21   0.0070    0.0054   0.0123   0.0011   0.0025  -0.0046   0.01    7.6
2020/12/24 22:12:06.006   40.096921222 -105.142647485  1581.5584   1  21   0.0067    0.0052   0.0118   0.0013   0.0031  -0.0045   0.01    8.7
2020/12/24 22:12:07.006   40.096921658 -105.142519896  1581.3925   1  21   0.0067    0.0051   0.0118   0.0003   0.0030  -0.0040   0.01    9.4
2020/12/24 22:12:08.006   40.096921806 -105.142393286  1581.2509   1  20   0.0085    0.0054   0.0117  -0.0032   0.0028  -0.0030   0.01    8.7
2020/12/24 22:12:09.006   40.096922363 -105.142267683  1581.1376   1  20   0.0077    0.0052   0.0113  -0.0023   0.0031  -0.0036   0.01    9.5
2020/12/24 22:12:10.006   40.096922900 -105.142142462  1580.9874   1  21   0.0073    0.0051   0.0110  -0.0020   0.0033  -0.0037   0.01   10.3
2020/12/24 22:12:11.006   40.096922375 -105.142017861  1580.8222   1  21   0.0071    0.0050   0.0111  -0.0019   0.0035  -0.0040   0.01   10.9
2020/12/24 22:12:12.006   40.096921552 -105.141895973  1580.6519   1  21   0.0065    0.0048   0.0108   0.0004   0.0037  -0.0042   0.01    6.6
2020/12/24 22:12:13.006   40.096920888 -105.141783600  1580.4635   1  21   0.0066    0.0052   0.0114  -0.0002   0.0025  -0.0037   0.01    7.6
2020/12/24 22:12:14.006   40.096920364 -105.141684871  1580.3103   1  18   0.0062    0.0051   0.0119  -0.0016   0.0048  -0.0051   0.01   12.1
2020/12/24 22:12:15.006   40.096919946 -105.141599334  1580.1681   1  19   0.0061    0.0051   0.0119  -0.0016   0.0048  -0.0050   0.01   13.8
2020/12/24 22:12:16.006   40.096920374 -105.141531445  1580.0623   1  21   0.0059    0.0049   0.0113  -0.0009   0.0043  -0.0044   0.01   15.2
2020/12/24 22:12:17.006   40.096920963 -105.141486118  1579.9881   1  21   0.0058    0.0056   0.0126  -0.0018   0.0059  -0.0049   0.01   16.8
2020/12/24 22:12:18.006   40.096921415 -105.141462595  1579.9503   1  21   0.0057    0.0052   0.0118  -0.0014   0.0051  -0.0045   0.01   18.0
2020/12/24 22:12:19.006   40.096921904 -105.141450134  1579.9261   1  21   0.0057    0.0051   0.0115  -0.0011   0.0047  -0.0043   0.01   18.6
2020/12/24 22:12:20.006   40.096925136 -105.141430161  1579.8838   1  21   0.0069    0.0061   0.0124   0.0033   0.0020  -0.0060   0.01   19.2
2020/12/24 22:12:21.006   40.096941782 -105.141397399  1579.7600   1  21   0.0095    0.0069   0.0133  -0.0057   0.0005   0.0030   0.01   28.0
2020/12/24 22:12:22.006   40.096977272 -105.141369205  1579.4833   1  21   0.0058    0.0051   0.0114   0.0008   0.0033  -0.0036   0.01   29.0
2020/12/24 22:12:23.006   40.097026374 -105.141352791  1579.0766   1  21   0.0049    0.0048   0.0101  -0.0004   0.0035  -0.0012   0.01    7.7
2020/12/24 22:12:24.006   40.097087184 -105.141340376  1578.6372   1  20   0.0048    0.0052   0.0105  -0.0006   0.0046  -0.0020   0.01    5.2
2020/12/24 22:12:25.006   40.097155572 -105.141333136  1578.2169   1  21   0.0047    0.0051   0.0105  -0.0007   0.0047  -0.0020   0.01    5.9
2020/12/24 22:12:26.006   40.097228914 -105.141330058  1577.7751   1  20   0.0047    0.0054   0.0110   0.0005   0.0050  -0.0016   0.01    4.9
2020/12/24 22:12:27.006   40.097306320 -105.141328516  1577.3796   1  20   0.0047    0.0054   0.0110   0.0005   0.0050  -0.0016   0.01    5.6
2020/12/24 22:12:28.006   40.097387397 -105.141327797  1576.9373   1  21   0.0047    0.0054   0.0110   0.0004   0.0051  -0.0016   0.01    6.1
2020/12/24 22:12:29.006   40.097470717 -105.141329270  1576.4994   1  21   0.0047    0.0054   0.0110   0.0004   0.0050  -0.0016   0.01    6.7
2020/12/24 22:12:30.006   40.097555661 -105.141332193  1576.0619   1  21   0.0047    0.0054   0.0110   0.0004   0.0050  -0.0016   0.01    7.2
2020/12/24 22:12:31.006   40.097642609 -105.141334587  1575.6128   1  19   0.0049    0.0056   0.0122  -0.0014   0.0059  -0.0030   0.01   14.8
2020/12/24 22:12:32.006   40.097731991 -105.141336530  1575.0866   1  19   0.0055    0.0068   0.0156  -0.0034   0.0084  -0.0058   0.01   29.3
2020/12/24 22:12:33.006   40.097824923 -105.141337738  1574.5529   1  18   0.0059    0.0138   0.0305  -0.0060   0.0196  -0.0093   0.01   32.1
2020/12/24 22:12:34.006   40.097921564 -105.141338259  1574.0041   1  18   0.0059    0.0138   0.0305  -0.0060   0.0197  -0.0093   0.01   33.6
2020/12/24 22:12:35.006   40.098021311 -105.141338333  1573.4866   1  19   0.0057    0.0109   0.0242  -0.0049   0.0151  -0.0078   0.01   35.0
2020/12/24 22:12:36.006   40.098122935 -105.141338674  1572.9468   1  20   0.0059    0.0138   0.0304  -0.0060   0.0197  -0.0093   0.01   36.1
2020/12/24 22:12:37.006   40.098225060 -105.141338586  1572.4200   1  18   0.0054    0.0110   0.0240  -0.0042   0.0152  -0.0067   0.01   38.2
2020/12/24 22:12:38.006   40.098327793 -105.141337728  1571.9792   1  21   0.0052    0.0097   0.0207  -0.0031   0.0128  -0.0052   0.01   40.6
2020/12/24 22:12:39.006   40.098430776 -105.141334762  1571.5114   1  18   0.0052    0.0087   0.0194  -0.0025   0.0115  -0.0038   0.01   41.1
2020/12/24 22:12:40.006   40.098534499 -105.141330710  1570.9262   1  17   0.0059    0.0084   0.0195  -0.0026   0.0106  -0.0056   0.01   28.9
2020/12/24 22:12:41.006   40.098639035 -105.141326925  1570.3665   1  19   0.0058    0.0067   0.0144   0.0005   0.0060   0.0010   0.01    4.7
2020/12/24 22:12:42.006   40.098744210 -105.141323955  1569.8784   1  20   0.0057    0.0060   0.0124  -0.0006   0.0036   0.0010   0.01    6.8
2020/12/24 22:12:43.006   40.098849659 -105.141321471  1569.4128   1  19   0.0057    0.0060   0.0124  -0.0006   0.0036   0.0010   0.01    7.9
2020/12/24 22:12:44.006   40.098955013 -105.141319040  1569.0154   1  20   0.0056    0.0056   0.0115   0.0012   0.0031  -0.0005   0.01    9.0
2020/12/24 22:12:45.006   40.099059839 -105.141316220  1568.6254   1  21   0.0055    0.0055   0.0111   0.0014   0.0029  -0.0008   0.01   10.1
2020/12/24 22:12:46.006   40.099163622 -105.141313532  1568.2432   1  21   0.0054    0.0053   0.0107   0.0017   0.0027  -0.0018   0.01   11.1
2020/12/24 22:12:47.006   40.099264910 -105.141311069  1567.8215   1  21   0.0053    0.0052   0.0103   0.0019   0.0029  -0.0023   0.01   12.1
2020/12/24 22:12:48.006   40.099364779 -105.141309868  1567.3709   1  18   0.0054    0.0053   0.0104   0.0015   0.0024  -0.0018   0.01   13.1
2020/12/24 22:12:49.006   40.099465009 -105.141309779  1566.9293   1  21   0.0047    0.0052   0.0106  -0.0009   0.0044  -0.0017   0.01    4.9
2020/12/24 22:12:50.006   40.099565645 -105.141311630  1566.4991   1  19   0.0047    0.0052   0.0106  -0.0008   0.0044  -0.0017   0.01    7.0
2020/12/24 22:12:51.006   40.099666056 -105.141315243  1566.1332   1  20   0.0051    0.0056   0.0105   0.0020   0.0044  -0.0020   0.01    6.0
2020/12/24 22:12:52.006   40.099766521 -105.141320039  1565.7148   1  20   0.0055    0.0056   0.0111  -0.0004   0.0037  -0.0026   0.01    3.4
2020/12/24 22:12:53.006   40.099866732 -105.141324565  1565.3274   1  20   0.0056    0.0057   0.0119  -0.0013   0.0029  -0.0006   0.01    5.8
2020/12/24 22:12:54.006   40.099965587 -105.141328022  1564.9039   1  21   0.0056    0.0057   0.0119  -0.0013   0.0029  -0.0006   0.01    8.1
2020/12/24 22:12:55.006   40.100062494 -105.141331627  1564.5086   1  21   0.0055    0.0056   0.0117  -0.0005   0.0033  -0.0018   0.01   10.1
2020/12/24 22:12:56.006   40.100157250 -105.141334678  1564.1823   1  20   0.0051    0.0056   0.0117  -0.0002   0.0045  -0.0012   0.01   12.1
2020/12/24 22:12:57.006   40.100251162 -105.141336682  1563.8505   1  21   0.0050    0.0055   0.0114  -0.0004   0.0047  -0.0013   0.01   14.0
2020/12/24 22:12:58.006   40.100344918 -105.141337741  1563.4546   1  21   0.0049    0.0055   0.0113  -0.0004   0.0047  -0.0013   0.01   16.0
2020/12/24 22:12:59.006   40.100439348 -105.141339757  1562.9828   1  21   0.0047    0.0053   0.0110  -0.0007   0.0050  -0.0013   0.01   13.0
2020/12/24 22:13:00.006   40.100534594 -105.141344942  1562.5280   1  21   0.0047    0.0053   0.0109  -0.0007   0.0051  -0.0013   0.01   15.1
2020/12/24 22:13:01.006   40.100630440 -105.141352817  1562.1148   1  21   0.0047    0.0053   0.0109  -0.0007   0.0051  -0.0014   0.01   17.3
2020/12/24 22:13:02.006   40.100726673 -105.141360528  1561.7291   1  21   0.0047    0.0049   0.0102   0.0003   0.0044  -0.0013   0.01    3.1
2020/12/24 22:13:03.006   40.100823141 -105.141368559  1561.3428   1  21   0.0046    0.0047   0.0099   0.0004   0.0041  -0.0012   0.01    3.5
2020/12/24 22:13:04.006   40.100920195 -105.141376800  1560.9007   1  21   0.0046    0.0046   0.0098   0.0004   0.0040  -0.0012   0.01    3.9
2020/12/24 22:13:05.006   40.101017322 -105.141385427  1560.5342   1  21   0.0046    0.0044   0.0095   0.0007   0.0035  -0.0010   0.01    4.3
2020/12/24 22:13:06.006   40.101114635 -105.141392869  1560.1752   1  21   0.0046    0.0044   0.0095   0.0006   0.0035  -0.0010   0.01    4.6
2020/12/24 22:13:07.006   40.101211857 -105.141397711  1559.7565   1  21   0.0046    0.0044   0.0094   0.0006   0.0034  -0.0011   0.01    4.7
2020/12/24 22:13:08.006   40.101305167 -105.141399527  1559.3862   1  21   0.0046    0.0044   0.0094   0.0006   0.0034  -0.0011   0.01    5.2
2020/12/24 22:13:09.006   40.101389002 -105.141398934  1559.0101   1  20   0.0046    0.0045   0.0096   0.0007   0.0032  -0.0012   0.01    6.0
2020/12/24 22:13:10.006   40.101462490 -105.141396586  1558.6742   1  21   0.0047    0.0051   0.0105  -0.0008   0.0045  -0.0018   0.01    6.0
2020/12/24 22:13:11.006   40.101518999 -105.141393958  1558.3635   1  21   0.0047    0.0051   0.0105  -0.0008   0.0045  -0.0018   0.01    6.5
2020/12/24 22:13:12.006   40.101559539 -105.141392445  1558.1460   1  21   0.0047    0.0051   0.0105  -0.0008   0.0045  -0.0018   0.01    7.0
2020/12/24 22:13:13.006   40.101583233 -105.141392367  1557.9836   1  21   0.0047    0.0051   0.0105  -0.0008   0.0045  -0.0018   0.01    7.5
2020/12/24 22:13:14.006   40.101593744 -105.141392586  1557.9053   1  21   0.0074    0.0064   0.0123   0.0010   0.0048   0.0056   0.01    7.9
2020/12/24 22:13:15.006   40.101600336 -105.141392604  1557.8708   1  21   0.0057    0.0052   0.0099  -0.0007   0.0036   0.0005   0.01   11.2
2020/12/24 22:13:16.006   40.101600823 -105.141392610  1557.8690   1  21   0.0052    0.0049   0.0097  -0.0005   0.0036  -0.0008   0.01   11.7
2020/12/24 22:13:17.006   40.101600821 -105.141392617  1557.8677   1  21   0.0050    0.0046   0.0095   0.0005   0.0032  -0.0006   0.01    5.1
2020/12/24 22:13:18.006   40.101600811 -105.141392618  1557.8660   1  21   0.0049    0.0046   0.0095   0.0005   0.0033  -0.0007   0.01    6.0
2020/12/24 22:13:19.006   40.101601994 -105.141392645  1557.8575   1  21   0.0048    0.0045   0.0095   0.0007   0.0033  -0.0010   0.01    6.8
2020/12/24 22:13:20.006   40.101613122 -105.141393730  1557.7784   1  21   0.0047    0.0045   0.0094   0.0007   0.0034  -0.0009   0.01    3.8
2020/12/24 22:13:21.006   40.101640609 -105.141404195  1557.7035   1  21   0.0047    0.0046   0.0096   0.0006   0.0031  -0.0010   0.01    3.9
2020/12/24 22:13:22.006   40.101669558 -105.141440676  1557.8762   1  21   0.0114    0.0114   0.0156   0.0091   0.0093   0.0042   0.01   11.7
2020/12/24 22:13:23.006   40.101685394 -105.141509909  1558.1166   1  21   0.0049    0.0060   0.0120   0.0020   0.0063   0.0023   0.01   13.2
2020/12/24 22:13:24.006   40.101691850 -105.141600322  1558.4166   1  21   0.0048    0.0049   0.0102   0.0015   0.0040   0.0015   0.01    3.1
2020/12/24 22:13:25.006   40.101694932 -105.141704726  1558.7458   1  21   0.0047    0.0047   0.0097   0.0011   0.0037   0.0003   0.01    3.3
2020/12/24 22:13:26.006   40.101695655 -105.141822072  1559.1217   1  21   0.0047    0.0046   0.0096   0.0010   0.0036  -0.0005   0.01    4.0
2020/12/24 22:13:27.006   40.101696154 -105.141950764  1559.5521   1  21   0.0047    0.0045   0.0096   0.0009   0.0036  -0.0006   0.01    4.6
2020/12/24 22:13:28.006   40.101696233 -105.142088142  1560.0284   1  21   0.0047    0.0045   0.0096   0.0009   0.0036  -0.0007   0.01    5.3
2020/12/24 22:13:29.006   40.101696768 -105.142231792  1560.5021   1  21   0.0046    0.0045   0.0095   0.0008   0.0036  -0.0007   0.01    3.4
2020/12/24 22:13:30.006   40.101698553 -105.142381493  1561.0249   1  21   0.0046    0.0045   0.0095   0.0008   0.0036  -0.0008   0.01    3.9
2020/12/24 22:13:31.006   40.101701233 -105.142535644  1561.6217   1  21   0.0046    0.0044   0.0094   0.0006   0.0034  -0.0010   0.01    4.1
2020/12/24 22:13:32.006   40.101704591 -105.142693740  1562.1822   1  21   0.0046    0.0044   0.0094   0.0006   0.0034  -0.0010   0.01    4.5
2020/12/24 22:13:33.006   40.101708641 -105.142854393  1562.6557   1  21   0.0046    0.0044   0.0094   0.0006   0.0034  -0.0010   0.01    4.8
2020/12/24 22:13:34.006   40.101712063 -105.143016570  1563.0819   1  21   0.0046    0.0044   0.0094   0.0006   0.0034  -0.0010   0.01    5.2
2020/12/24 22:13:35.006   40.101715101 -105.143179716  1563.4524   1  21   0.0046    0.0044   0.0094   0.0006   0.0034  -0.0010   0.01    5.5
2020/12/24 22:13:36.006   40.101717895 -105.143345250  1563.7861   1  21   0.0046    0.0044   0.0094   0.0006   0.0034  -0.0010   0.01    5.8
2020/12/24 22:13:37.006   40.101718877 -105.143513249  1564.0974   1  21   0.0046    0.0044   0.0094   0.0006   0.0034  -0.0010   0.01    6.1
2020/12/24 22:13:38.006   40.101718039 -105.143680355  1564.3273   1  21   0.0046    0.0044   0.0094   0.0006   0.0034  -0.0010   0.01    6.5
2020/12/24 22:13:39.006   40.101716983 -105.143848839  1564.5018   1  21   0.0046    0.0044   0.0094   0.0006   0.0034  -0.0010   0.01    6.7
2020/12/24 22:13:40.006   40.101715642 -105.144017780  1564.6064   1  21   0.0046    0.0044   0.0094   0.0006   0.0034  -0.0010   0.01    7.0
2020/12/24 22:13:41.006   40.101714133 -105.144186241  1564.6818   1  21   0.0046    0.0044   0.0094   0.0006   0.0034  -0.0010   0.01    7.3
2020/12/24 22:13:42.006   40.101712389 -105.144354564  1564.6939   1  21   0.0046    0.0044   0.0094   0.0006   0.0034  -0.0010   0.01    7.5
2020/12/24 22:13:43.006   40.101710416 -105.144522394  1564.6521   1  21   0.0046    0.0044   0.0094   0.0006   0.0034  -0.0010   0.01    7.8
2020/12/24 22:13:44.006   40.101708542 -105.144690066  1564.6122   1  21   0.0046    0.0044   0.0094   0.0006   0.0034  -0.0010   0.01    8.0
2020/12/24 22:13:45.006   40.101706910 -105.144857734  1564.5424   1  21   0.0046    0.0044   0.0094   0.0006   0.0034  -0.0010   0.01    8.2
2020/12/24 22:13:46.006   40.101705514 -105.145025820  1564.4018   1  21   0.0046    0.0044   0.0094   0.0006   0.0034  -0.0010   0.01    8.4
2020/12/24 22:13:47.006   40.101704324 -105.145194546  1564.2168   1  21   0.0052    0.0045   0.0099  -0.0014   0.0029   0.0025   0.01    9.7
2020/12/24 22:13:48.006   40.101703590 -105.145363274  1564.2678   1  21   0.0050    0.0045   0.0097  -0.0011   0.0031   0.0020   0.01    9.8
2020/12/24 22:13:49.006   40.101701953 -105.145530060  1564.0919   1  21   0.0057    0.0047   0.0101  -0.0020   0.0024   0.0030   0.01    9.1
2020/12/24 22:13:50.006   40.101699128 -105.145695639  1563.7650   1  21   0.0064    0.0050   0.0106  -0.0029   0.0008   0.0043   0.01   17.5
2020/12/24 22:13:51.006   40.101697987 -105.145863558  1563.5942   1  21   0.0053    0.0046   0.0101  -0.0016   0.0032   0.0016   0.01   19.5
2020/12/24 22:13:52.006   40.101696184 -105.146031330  1563.3015   1  21   0.0052    0.0046   0.0102  -0.0016   0.0035  -0.0009   0.01   19.9
2020/12/24 22:13:53.006   40.101694769 -105.146198038  1562.9864   1  21   0.0051    0.0046   0.0100  -0.0014   0.0035  -0.0006   0.01   20.2
2020/12/24 22:13:54.006   40.101693139 -105.146363483  1562.6029   1  21   0.0051    0.0046   0.0101  -0.0014   0.0036  -0.0014   0.01   20.6
2020/12/24 22:13:55.006   40.101689642 -105.146529402  1562.2037   1  20   0.0049    0.0045   0.0099  -0.0011   0.0036  -0.0016   0.01    4.6
2020/12/24 22:13:56.006   40.101685479 -105.146695996  1561.8403   1  21   0.0049    0.0045   0.0098  -0.0010   0.0036  -0.0016   0.01    5.7
2020/12/24 22:13:57.006   40.101680428 -105.146862403  1561.4266   1  20   0.0053    0.0049   0.0112  -0.0022   0.0048  -0.0037   0.01    7.7
2020/12/24 22:13:58.006   40.101673990 -105.147028509  1561.0423   1  21   0.0053    0.0048   0.0107  -0.0021   0.0041  -0.0024   0.01    3.1
2020/12/24 22:13:59.006   40.101667010 -105.147195061  1560.5310   1  18   0.0055    0.0050   0.0113  -0.0025   0.0047  -0.0033   0.01    3.5
2020/12/24 22:14:00.006   40.101660499 -105.147362502  1560.0373   1  21   0.0053    0.0049   0.0112  -0.0023   0.0048  -0.0035   0.01    3.9
2020/12/24 22:14:01.006   40.101655480 -105.147530461  1559.5883   1  21   0.0050    0.0047   0.0106  -0.0016   0.0044  -0.0030   0.01    4.3
2020/12/24 22:14:02.006   40.101652084 -105.147698861  1559.1337   1  21   0.0049    0.0046   0.0103  -0.0014   0.0042  -0.0027   0.01    4.5
2020/12/24 22:14:03.006   40.101649630 -105.147866955  1558.6998   1  21   0.0049    0.0046   0.0103  -0.0013   0.0041  -0.0026   0.01    4.8
2020/12/24 22:14:04.006   40.101646759 -105.148026695  1558.2538   1  21   0.0049    0.0046   0.0102  -0.0012   0.0041  -0.0025   0.01    5.2
2020/12/24 22:14:05.006   40.101644218 -105.148173024  1557.8682   1  21   0.0048    0.0045   0.0099  -0.0009   0.0038  -0.0020   0.01    5.5
2020/12/24 22:14:06.006   40.101642400 -105.148303979  1557.5352   1  21   0.0048    0.0045   0.0098  -0.0008   0.0037  -0.0018   0.01    5.9
2020/12/24 22:14:07.006   40.101641344 -105.148422465  1557.2195   1  21   0.0047    0.0045   0.0097  -0.0007   0.0037  -0.0017   0.01    6.2
2020/12/24 22:14:08.006   40.101640501 -105.148526992  1556.9259   1  21   0.0047    0.0045   0.0097  -0.0006   0.0037  -0.0016   0.01    6.6
2020/12/24 22:14:09.006   40.101639401 -105.148617665  1556.6709   1  21   0.0048    0.0045   0.0101  -0.0010   0.0040  -0.0023   0.01    6.9
2020/12/24 22:14:10.006   40.101638387 -105.148697166  1556.4260   1  21   0.0048    0.0045   0.0101  -0.0010   0.0039  -0.0023   0.01    7.2
2020/12/24 22:14:11.006   40.101637346 -105.148765465  1556.2163   1  21   0.0047    0.0045   0.0098  -0.0007   0.0037  -0.0018   0.01    7.5
2020/12/24 22:14:12.006   40.101636388 -105.148823025  1556.0395   1  21   0.0047    0.0045   0.0097  -0.0006   0.0037  -0.0016   0.01    7.9
2020/12/24 22:14:13.006   40.101635451 -105.148870841  1555.9174   1  21   0.0047    0.0045   0.0096  -0.0005   0.0036  -0.0015   0.01    8.2
2020/12/24 22:14:14.006   40.101634664 -105.148910089  1555.8215   1  21   0.0047    0.0044   0.0096  -0.0004   0.0036  -0.0015   0.01    8.5
2020/12/24 22:14:15.006   40.101634081 -105.148937435  1555.7507   1  21   0.0047    0.0044   0.0096  -0.0003   0.0036  -0.0014   0.01    8.8
2020/12/24 22:14:16.006   40.101633807 -105.148950791  1555.7146   1  21   0.0046    0.0044   0.0094   0.0005   0.0035  -0.0010   0.01    3.9
2020/12/24 22:14:17.006   40.101633699 -105.148955434  1555.6953   1  21   0.0046    0.0044   0.0094   0.0005   0.0035  -0.0010   0.01    4.3
2020/12/24 22:14:18.006   40.101633694 -105.148955502  1555.6940   1  21   0.0046    0.0044   0.0094   0.0006   0.0034  -0.0009   0.01    4.3
2020/12/24 22:14:19.006   40.101633681 -105.148955502  1555.6945   1  21   0.0046    0.0044   0.0094   0.0006   0.0034  -0.0009   0.01    4.6
2020/12/24 22:14:20.006   40.101633689 -105.148955494  1555.6934   1  21   0.0046    0.0044   0.0094   0.0006   0.0034  -0.0009   0.01    5.0
2020/12/24 22:14:21.006   40.101633583 -105.148959004  1555.6740   1  21   0.0046    0.0044   0.0094   0.0006   0.0034  -0.0009   0.01    5.2
2020/12/24 22:14:22.006   40.101633118 -105.148980633  1555.6109   1  21   0.0047    0.0055   0.0110   0.0003   0.0051  -0.0015   0.01    6.2
2020/12/24 22:14:23.006   40.101632184 -105.149032740  1555.4682   1  21   0.0046    0.0050   0.0102   0.0005   0.0043  -0.0012   0.01    6.6
2020/12/24 22:14:24.006   40.101630897 -105.149107194  1555.2282   1  18   0.0069    0.0062   0.0141   0.0019   0.0047  -0.0069   0.01    5.2
2020/12/24 22:14:25.006   40.101629019 -105.149201105  1554.9018   1  18   0.0066    0.0057   0.0135  -0.0007   0.0052  -0.0063   0.01    8.0
2020/12/24 22:14:26.006   40.101626806 -105.149313013  1554.5457   1  20   0.0061    0.0056   0.0130  -0.0013   0.0051  -0.0056   0.01   11.5
2020/12/24 22:14:27.006   40.101624212 -105.149438511  1554.1112   1  20   0.0053    0.0054   0.0121  -0.0020   0.0054  -0.0043   0.01    7.2
2020/12/24 22:14:28.006   40.101622688 -105.149576238  1553.6843   1  21   0.0053    0.0053   0.0119  -0.0021   0.0054  -0.0042   0.01    9.3
2020/12/24 22:14:29.006   40.101621809 -105.149722245  1553.1901   1  21   0.0050    0.0050   0.0112  -0.0018   0.0049  -0.0034   0.01    5.6
2020/12/24 22:14:30.006   40.101621127 -105.149873877  1552.5346   1  20   0.0055    0.0051   0.0114  -0.0023   0.0044  -0.0016   0.01    7.3
2020/12/24 22:14:31.006   40.101620408 -105.150034488  1551.8001   1  21   0.0053    0.0050   0.0113  -0.0020   0.0042  -0.0019   0.01    8.7
2020/12/24 22:14:32.006   40.101619620 -105.150201159  1551.1290   1  20   0.0064    0.0055   0.0120   0.0012   0.0027  -0.0036   0.01    8.9
2020/12/24 22:14:33.006   40.101618305 -105.150371677  1550.4919   1  20   0.0056    0.0054   0.0115  -0.0014   0.0033  -0.0016   0.01   19.3
2020/12/24 22:14:34.006   40.101617482 -105.150545657  1549.8659   1  21   0.0056    0.0054   0.0114  -0.0013   0.0032  -0.0015   0.01   21.3
2020/12/24 22:14:35.006   40.101616542 -105.150722665  1549.3190   1  21   0.0054    0.0053   0.0109  -0.0003   0.0033  -0.0013   0.01   23.2
2020/12/24 22:14:36.006   40.101615542 -105.150902640  1548.7493   1  21   0.0053    0.0052   0.0107   0.0007   0.0033  -0.0011   0.01   24.8
2020/12/24 22:14:37.006   40.101614724 -105.151085095  1548.1816   1  21   0.0052    0.0050   0.0105  -0.0007   0.0034  -0.0008   0.01   26.7
2020/12/24 22:14:38.006   40.101613994 -105.151269541  1547.5962   1  21   0.0050    0.0049   0.0104  -0.0006   0.0035  -0.0013   0.01   28.6
2020/12/24 22:14:39.006   40.101613791 -105.151456210  1547.0014   1  21   0.0048    0.0048   0.0102  -0.0002   0.0036  -0.0019   0.01    8.4
2020/12/24 22:14:40.006   40.101613853 -105.151644942  1546.5305   1  21   0.0048    0.0048   0.0101  -0.0003   0.0036  -0.0018   0.01   10.9
2020/12/24 22:14:41.006   40.101614064 -105.151835603  1546.1192   1  21   0.0048    0.0047   0.0100  -0.0004   0.0036  -0.0017   0.01   13.5
2020/12/24 22:14:42.006   40.101614174 -105.152028509  1545.7507   1  21   0.0047    0.0045   0.0096   0.0003   0.0034  -0.0011   0.01    5.9
2020/12/24 22:14:43.006   40.101614153 -105.152222335  1545.4051   1  21   0.0047    0.0045   0.0096   0.0003   0.0034  -0.0011   0.01    6.5
2020/12/24 22:14:44.006   40.101615105 -105.152414777  1545.0913   1  21   0.0046    0.0044   0.0095   0.0005   0.0033  -0.0006   0.01    6.7
2020/12/24 22:14:45.006   40.101616535 -105.152606230  1544.8205   1  21   0.0046    0.0045   0.0096   0.0006   0.0031  -0.0008   0.01    7.2
2020/12/24 22:14:46.006   40.101617275 -105.152796668  1544.5254   1  21   0.0046    0.0045   0.0096   0.0007   0.0031  -0.0009   0.01    7.4
2020/12/24 22:14:47.006   40.101617377 -105.152985521  1544.2164   1  21   0.0046    0.0045   0.0096   0.0007   0.0031  -0.0009   0.01    7.8
2020/12/24 22:14:48.006   40.101617068 -105.153172718  1543.9562   1  21   0.0046    0.0044   0.0095   0.0007   0.0033  -0.0009   0.01    8.2
2020/12/24 22:14:49.006   40.101616463 -105.153359271  1543.7226   1  21   0.0046    0.0044   0.0095   0.0006   0.0033  -0.0009   0.01    8.6
2020/12/24 22:14:50.006   40.101616385 -105.153545374  1543.4809   1  21   0.0046    0.0044   0.0094   0.0006   0.0034  -0.0008   0.01    9.0
2020/12/24 22:14:51.006   40.101616968 -105.153731050  1543.2383   1  20   0.0046    0.0050   0.0104  -0.0008   0.0047  -0.0017   0.01    9.2
2020/12/24 22:14:52.006   40.101617903 -105.153914674  1543.1339   1  18   0.0051    0.0062   0.0120  -0.0015   0.0060  -0.0037   0.01    9.1
2020/12/24 22:14:53.006   40.101619038 -105.154093800  1543.1218   1  19   0.0070    0.0065   0.0156  -0.0030   0.0077  -0.0069   0.01   18.1
2020/12/24 22:14:54.006   40.101620203 -105.154258942  1543.1028   1  19   0.0217    0.0216   0.0193   0.0202   0.0038  -0.0115   0.01   38.3
2020/12/24 22:14:55.006   40.101620984 -105.154404086  1543.0880   1  21   0.0132    0.0094   0.0177   0.0090  -0.0066  -0.0125   0.01   41.2
2020/12/24 22:14:56.006   40.101621584 -105.154521956  1543.0589   1  20   0.0289    0.0283   0.0202   0.0272   0.0115  -0.0062   0.01  106.1
2020/12/24 22:14:57.006   40.101619508 -105.154609861  1543.0231   2  20   0.0168    0.0128   0.0215   0.0113   0.0072  -0.0076   0.01    2.6
2020/12/24 22:14:58.006   40.101607054 -105.154676422  1542.9716   2  21   0.0153    0.0119   0.0200   0.0105   0.0053  -0.0094   0.01    2.4
2020/12/24 22:14:59.006   40.101575820 -105.154733132  1542.8837   2  21   0.0306    0.0221   0.0599   0.0225  -0.0245  -0.0374   0.01    2.0
2020/12/24 22:15:00.006   40.101519442 -105.154776993  1542.8262   2  21   0.0270    0.0192   0.0478   0.0195  -0.0232  -0.0321   0.01    2.4
