%  GPST          latitude(deg) longitude(deg)  height(m)   Q  ns   sdn(m)   sde(m)   sdu(m)  sdne(m)  sdeu(m)  sdun(m) age(s)  ratio
2137 425280.000   40.097017376 -105.147247840  1578.5228   2  19   1.2962    1.3039   2.7386  -0.1453   0.9514  -0.6157   0.01    0.0
2137 425280.000   40.097017376 -105.147247840  1578.5228   2  19   1.2962    1.3039   2.7386  -0.1453   0.9514  -0.6157   0.01    0.0
2137 425281.005   40.097017081 -105.147247175  1578.6375   2  19   0.9324    0.9052   1.8986   0.1703   0.5448  -0.2865   0.00    0.0
2137 425281.005   40.097017081 -105.147247175  1578.6375   2  19   0.9324    0.9052   1.8986   0.1703   0.5448  -0.2865   0.00    0.0
2137 425282.005   40.097017068 -105.147247319  1578.6073   2  19   0.7767    0.7577   1.5869   0.1315   0.4771  -0.2572   0.00    0.0
2137 425282.005   40.097017068 -105.147247319  1578.6073   2  19   0.7767    0.7577   1.5869   0.1315   0.4771  -0.2572   0.00    0.0
2137 425283.005   40.097017183 -105.147247352  1578.5995   2  19   0.6791    0.6647   1.3900   0.1088   0.4278  -0.2344   0.00    0.0
2137 425283.005   40.097017183 -105.147247352  1578.5995   2  19   0.6791    0.6647   1.3900   0.1088   0.4278  -0.2344   0.00    0.0
2137 425284.005   40.097017150 -105.147247406  1578.5544   2  19   0.6104    0.5991   1.2508   0.0932   0.3903  -0.2170   0.00    0.0
2137 425284.005   40.097017150 -105.147247406  1578.5544   2  19   0.6104    0.5991   1.2508   0.0932   0.3903  -0.2170   0.00    0.0
2137 425285.005   40.097017231 -105.147247344  1578.5316   2  19   0.5585    0.5497   1.1452   0.0814   0.3607  -0.2035   0.00    0.0
2137 425285.005   40.097017231 -105.147247344  1578.5316   2  19   0.5585    0.5497   1.1452   0.0814   0.3607  -0.2035   0.00    0.0
2137 425286.005   40.097017068 -105.147247368  1578.4902   2  19   0.5174    0.5107   1.0614   0.0718   0.3366  -0.1928   0.00    0.0
2137 425286.005   40.097017068 -105.147247368  1578.4902   2  19   0.5174    0.5107   1.0614   0.0718   0.3366  -0.1928   0.00    0.0
2137 425287.005   40.097016859 -105.147247505  1578.4659   2  19   0.4838    0.4789   0.9925   0.0636   0.3163  -0.1841   0.00    0.0
2137 425287.005   40.097016859 -105.147247505  1578.4659   2  19   0.4838    0.4789   0.9925   0.0636   0.3163  -0.1841   0.00    0.0
2137 425288.005   40.097016676 -105.147247742  1578.4527   2  19   0.4555    0.4524   0.9344   0.0562   0.2990  -0.1770   0.01    0.0
2137 425288.005   40.097016676 -105.147247742  1578.4527   2  19   0.4555    0.4524   0.9344   0.0562   0.2990  -0.1770   0.01    0.0
2137 425289.005   40.097016629 -105.147247866  1578.4646   2  19   0.4312    0.4297   0.8845   0.0494   0.2839  -0.1710   0.01    0.0
2137 425289.005   40.097016629 -105.147247866  1578.4646   2  19   0.4312    0.4297   0.8845   0.0494   0.2839  -0.1710   0.01    0.0
2137 425290.005   40.097016563 -105.147248030  1578.4364   2  19   0.4101    0.4100   0.8408   0.0427   0.2706  -0.1660   0.01    0.0
2137 425290.005   40.097016563 -105.147248030  1578.4364   2  19   0.4101    0.4100   0.8408   0.0427   0.2706  -0.1660   0.01    0.0
2137 425291.005   40.097016616 -105.147248043  1578.4207   2  19   0.3913    0.3928   0.8021   0.0360   0.2587  -0.1617   0.01    0.0
2137 425291.005   40.097016616 -105.147248043  1578.4207   2  19   0.3913    0.3928   0.8021   0.0360   0.2587  -0.1617   0.01    0.0
2137 425292.005   40.097016510 -105.147248097  1578.4182   2  19   0.3746    0.3775   0.7674   0.0290   0.2480  -0.1580   0.01    0.0
2137 425292.005   40.097016510 -105.147248097  1578.4182   2  19   0.3746    0.3775   0.7674   0.0290   0.2480  -0.1580   0.01    0.0
2137 425293.005   40.097016475 -105.147248001  1578.4516   2  19   0.3594    0.3638   0.7361   0.0208   0.2382  -0.1547   0.01    0.0
2137 425293.005   40.097016475 -105.147248001  1578.4516   2  19   0.3594    0.3638   0.7361   0.0208   0.2382  -0.1547   0.01    0.0
2137 425294.005   40.097016478 -105.147247964  1578.4614   2  19   0.3456    0.3514   0.7074   0.0084   0.2293  -0.1518   0.01    0.0
2137 425294.005   40.097016478 -105.147247964  1578.4614   2  19   0.3456    0.3514   0.7074   0.0084   0.2293  -0.1518   0.01    0.0
2137 425295.005   40.097016567 -105.147247947  1578.4721   2  19   0.3330    0.3402   0.6811  -0.0160   0.2211  -0.1492   0.01    0.0
2137 425295.005   40.097016567 -105.147247947  1578.4721   2  19   0.3330    0.3402   0.6811  -0.0160   0.2211  -0.1492   0.01    0.0
2137 425296.005   40.097016705 -105.147247804  1578.4913   2  21   0.3213    0.3286   0.6557  -0.0249   0.2161  -0.1466   0.00    0.0
2137 425296.005   40.097016705 -105.147247804  1578.4913   2  21   0.3213    0.3286   0.6557  -0.0249   0.2161  -0.1466   0.00    0.0
2137 425297.005   40.097016732 -105.147247796  1578.5106   2  21   0.3105    0.3188   0.6327  -0.0302   0.2099  -0.1443   0.00    0.0
2137 425297.005   40.097016732 -105.147247796  1578.5106   2  21   0.3105    0.3188   0.6327  -0.0302   0.2099  -0.1443   0.00    0.0
2137 425298.005   40.097016776 -105.147247867  1578.5218   2  21   0.3004    0.3097   0.6112  -0.0343   0.2041  -0.1423   0.00    0.0
2137 425298.005   40.097016776 -105.147247867  1578.5218   2  21   0.3004    0.3097   0.6112  -0.0343   0.2041  -0.1423   0.00    0.0
2137 425299.005   40.097016907 -105.147247895  1578.5549   2  21   0.2910    0.3014   0.5912  -0.0376   0.1985  -0.1403   0.00    0.0
2137 425299.005   40.097016907 -105.147247895  1578.5549   2  21   0.2910    0.3014   0.5912  -0.0376   0.1985  -0.1403   0.00    0.0
2137 425300.005   40.097016914 -105.147247974  1578.5642   2  21   0.2822    0.2936   0.5724  -0.0404   0.1931  -0.1385   0.00    0.0
2137 425300.005   40.097016914 -105.147247974  1578.5642   2  21   0.2822    0.2936   0.5724  -0.0404   0.1931  -0.1385   0.00    0.0
2137 425301.005   40.097017023 -105.147248056  1578.5962   2  21   0.2738    0.2864   0.5548  -0.0427   0.1881  -0.1368   0.00    0.0
2137 425301.005   40.097017023 -105.147248056  1578.5962   2  21   0.2738    0.2864   0.5548  -0.0427   0.1881  -0.1368   0.00    0.0
2137 425302.005   40.097017070 -105.147248234  1578.5943   2  21   0.2660    0.2796   0.5381  -0.0448   0.1832  -0.1352   0.00    0.0
2137 425302.005   40.097017070 -105.147248234  1578.5943   2  21   0.2660    0.2796   0.5381  -0.0448   0.1832  -0.1352   0.00    0.0
2137 425303.005   40.097017228 -105.147248381  1578.5941   2  21   0.2585    0.2733   0.5223  -0.0465   0.1785  -0.1336   0.00    0.0
2137 425303.005   40.097017228 -105.147248381  1578.5941   2  21   0.2585    0.2733   0.5223  -0.0465   0.1785  -0.1336   0.00    0.0
2137 425304.005   40.097017395 -105.147248475  1578.5995   2  21   0.2514    0.2673   0.5074  -0.0481   0.1741  -0.1321   0.00    0.0
2137 425304.005   40.097017395 -105.147248475  1578.5995   2  21   0.2514    0.2673   0.5074  -0.0481   0.1741  -0.1321   0.00    0.0
2137 425305.005   40.097017488 -105.147248559  1578.5966   2  21   0.2447    0.2617   0.4931  -0.0495   0.1698  -0.1306   0.00    0.0
2137 425305.005   40.097017488 -105.147248559  1578.5966   2  21   0.2447    0.2617   0.4931  -0.0495   0.1698  -0.1306   0.00    0.0
2137 425306.005   40.097017606 -105.147248654  1578.5843   2  21   0.2383    0.2564   0.4796  -0.0507   0.1658  -0.1291   0.00    0.0
2137 425306.005   40.097017606 -105.147248654  1578.5843   2  21   0.2383    0.2564   0.4796  -0.0507   0.1658  -0.1291   0.00    0.0
2137 425307.005   40.097017745 -105.147248747  1578.5795   2  21   0.2321    0.2513   0.4667  -0.0517   0.1618  -0.1277   0.00    0.0
2137 425307.005   40.097017745 -105.147248747  1578.5795   2  21   0.2321    0.2513   0.4667  -0.0517   0.1618  -0.1277   0.00    0.0
2137 425308.005   40.097017915 -105.147248802  1578.5642   2  21   0.2263    0.2465   0.4544  -0.0527   0.1581  -0.1263   0.00    0.0
2137 425308.005   40.097017915 -105.147248802  1578.5642   2  21   0.2263    0.2465   0.4544  -0.0527   0.1581  -0.1263   0.00    0.0
2137 425309.005   40.097018077 -105.147248866  1578.5728   2  21   0.2207    0.2420   0.4426  -0.0535   0.1545  -0.1249   0.00    0.0
2137 425309.005   40.097018077 -105.147248866  1578.5728   2  21   0.2207    0.2420   0.4426  -0.0535   0.1545  -0.1249   0.00    0.0
2137 425310.005   40.097023872 -105.147249846  1578.1212   1  21   0.0047    0.0045   0.0095   0.0005   0.0035  -0.0016   0.00    3.4
2137 425310.005   40.097023872 -105.147249846  1578.1212   1  21   0.0047    0.0045   0.0095   0.0005   0.0035  -0.0016   0.00    3.4
2137 425311.005   40.097023887 -105.147249832  1578.1228   1  21   0.0047    0.0045   0.0095   0.0005   0.0035  -0.0016   0.00    3.5
2137 425311.005   40.097023887 -105.147249832  1578.1228   1  21   0.0047    0.0045   0.0095   0.0005   0.0035  -0.0016   0.00    3.5
2137 425312.005   40.097023885 -105.147249845  1578.1229   1  21   0.0047    0.0045   0.0095   0.0005   0.0035  -0.0016   0.01    3.6
2137 425312.005   40.097023885 -105.147249845  1578.1229   1  21   0.0047    0.0045   0.0095   0.0005   0.0035  -0.0016   0.01    3.6
2137 425313.005   40.097023882 -105.147249860  1578.1219   1  21   0.0047    0.0045   0.0095   0.0005   0.0035  -0.0016   0.01    3.6
2137 425313.005   40.097023882 -105.147249860  1578.1219   1  21   0.0047    0.0045   0.0095   0.0005   0.0035  -0.0016   0.01    3.6
2137 425314.005   40.097023879 -105.147249845  1578.1216   1  21   0.0047    0.0045   0.0095   0.0005   0.0035  -0.0016   0.01    3.7
2137 425314.005   40.097023879 -105.147249845  1578.1216   1  21   0.0047    0.0045   0.0095   0.0005   0.0035  -0.0016   0.01    3.7
2137 425315.005   40.097023883 -105.147249840  1578.1233   1  21   0.0047    0.0045   0.0095   0.0005   0.0035  -0.0016   0.01    3.7
2137 425315.005   40.097023883 -105.147249840  1578.1233   1  21   0.0047    0.0045   0.0095   0.0005   0.0035  -0.0016   0.01    3.7
2137 425316.005   40.097023882 -105.147249848  1578.1233   1  21   0.0047    0.0045   0.0095   0.0005   0.0035  -0.0016   0.01    3.7
2137 425316.005   40.097023882 -105.147249848  1578.1233   1  21   0.0047    0.0045   0.0095   0.0005   0.0035  -0.0016   0.01    3.7
2137 425317.005   40.097023886 -105.147249852  1578.1235   1  21   0.0047    0.0045   0.0095   0.0005   0.0035  -0.0016   0.01    3.8
2137 425317.005   40.097023886 -105.147249852  1578.1235   1  21   0.0047    0.0045   0.0095   0.0005   0.0035  -0.0016   0.01    3.8
2137 425318.005   40.097023882 -105.147249851  1578.1220   1  21   0.0047    0.0045   0.0095   0.0005   0.0035  -0.0016   0.01    3.8
2137 425318.005   40.097023882 -105.147249851  1578.1220   1  21   0.0047    0.0045   0.0095   0.0005   0.0035  -0.0016   0.01    3.8
2137 425319.005   40.097023895 -105.147249854  1578.1256   1  21   0.0047    0.0045   0.0095   0.0005   0.0035  -0.0016   0.01    3.8
2137 425319.005   40.097023895 -105.147249854  1578.1256   1  21   0.0047    0.0045   0.0095   0.0005   0.0035  -0.0016   0.01    3.8
2137 425320.005   40.097023894 -105.147249858  1578.1236   1  21   0.0047    0.0045   0.0095   0.0005   0.0035  -0.0016   0.01    3.8
2137 425320.005   40.097023894 -105.147249858  1578.1236   1  21   0.0047    0.0045   0.0095   0.0005   0.0035  -0.0016   0.01    3.8
2137 425321.005   40.097023888 -105.147249865  1578.1246   1  21   0.0047    0.0045   0.0095   0.0005   0.0035  -0.0016   0.01    3.8
2137 425321.005   40.097023888 -105.147249865  1578.1246   1  21   0.0047    0.0045   0.0095   0.0005   0.0035  -0.0016   0.01    3.8
2137 425322.005   40.097023896 -105.147249855  1578.1245   1  21   0.0047    0.0045   0.0095   0.0005   0.0035  -0.0016   0.01    3.9
2137 425322.005   40.097023896 -105.147249855  1578.1245   1  21   0.0047    0.0045   0.0095   0.0005   0.0035  -0.0016   0.01    3.9
2137 425323.005   40.097023893 -105.147249855  1578.1241   1  21   0.0047    0.0045   0.0095   0.0005   0.0035  -0.0016   0.01    3.9
2137 425323.005   40.097023893 -105.147249855  1578.1241   1  21   0.0047    0.0045   0.0095   0.0005   0.0035  -0.0016   0.01    3.9
2137 425324.005   40.097023901 -105.147249863  1578.1267   1  21   0.0047    0.0045   0.0095   0.0005   0.0035  -0.0016   0.01    3.9
2137 425324.005   40.097023901 -105.147249863  1578.1267   1  21   0.0047    0.0045   0.0095   0.0005   0.0035  -0.0016   0.01    3.9
2137 425325.005   40.097023903 -105.147249848  1578.1267   1  21   0.0047    0.0045   0.0095   0.0005   0.0035  -0.0016   0.01    3.9
2137 425325.005   40.097023903 -105.147249848  1578.1267   1  21   0.0047    0.0045   0.0095   0.0005   0.0035  -0.0016   0.01    3.9
2137 425326.005   40.097023908 -105.147249856  1578.1288   1  21   0.0047    0.0045   0.0095   0.0005   0.0035  -0.0016   0.01    3.9
2137 425326.005   40.097023908 -105.147249856  1578.1288   1  21   0.0047    0.0045   0.0095   0.0005   0.0035  -0.0016   0.01    3.9
2137 425327.005   40.097023904 -105.147249860  1578.1285   1  21   0.0047    0.0045   0.0095   0.0005   0.0035  -0.0016   0.01    3.9
2137 425327.005   40.097023904 -105.147249860  1578.1285   1  21   0.0047    0.0045   0.0095   0.0005   0.0035  -0.0016   0.01    3.9
2137 425328.005   40.097023903 -105.147249851  1578.1266   1  21   0.0047    0.0045   0.0095   0.0005   0.0035  -0.0016   0.01    4.0
2137 425328.005   40.097023903 -105.147249851  1578.1266   1  21   0.0047    0.0045   0.0095   0.0005   0.0035  -0.0016   0.01    4.0
2137 425329.005   40.097023909 -105.147249860  1578.1273   1  21   0.0047    0.0045   0.0095   0.0005   0.0035  -0.0016   0.01    4.0
2137 425329.005   40.097023909 -105.147249860  1578.1273   1  21   0.0047    0.0045   0.0095   0.0005   0.0035  -0.0016   0.01    4.0
2137 425330.005   40.097023901 -105.147249866  1578.1279   1  21   0.0047    0.0045   0.0095   0.0006   0.0035  -0.0016   0.01    4.1
2137 425330.005   40.097023901 -105.147249866  1578.1279   1  21   0.0047    0.0045   0.0095   0.0006   0.0035  -0.0016   0.01    4.1
2137 425331.005   40.097023913 -105.147249852  1578.1291   1  21   0.0047    0.0045   0.0095   0.0006   0.0035  -0.0016   0.01    4.1
2137 425331.005   40.097023913 -105.147249852  1578.1291   1  21   0.0047    0.0045   0.0095   0.0006   0.0035  -0.0016   0.01    4.1
2137 425332.005   40.097023905 -105.147249854  1578.1291   1  21   0.0047    0.0045   0.0095   0.0006   0.0035  -0.0016   0.01    4.2
2137 425332.005   40.097023905 -105.147249854  1578.1291   1  21   0.0047    0.0045   0.0095   0.0006   0.0035  -0.0016   0.01    4.2
2137 425333.005   40.097023897 -105.147249853  1578.1278   1  21   0.0047    0.0045   0.0095   0.0006   0.0035  -0.0016   0.01    4.2
2137 425333.005   40.097023897 -105.147249853  1578.1278   1  21   0.0047    0.0045   0.0095   0.0006   0.0035  -0.0016   0.01    4.2
2137 425334.005   40.097023903 -105.147249856  1578.1294   1  21   0.0047    0.0045   0.0095   0.0006   0.0035  -0.0016   0.01    4.2
2137 425334.005   40.097023903 -105.147249856  1578.1294   1  21   0.0047    0.0045   0.0095   0.0006   0.0035  -0.0016   0.01    4.2
2137 425335.005   40.097023902 -105.147249838  1578.1301   1  21   0.0047    0.0045   0.0095   0.0006   0.0035  -0.0016   0.01    4.3
2137 425335.005   40.097023902 -105.147249838  1578.1301   1  21   0.0047    0.0045   0.0095   0.0006   0.0035  -0.0016   0.01    4.3
2137 425336.005   40.097023903 -105.147249846  1578.1289   1  21   0.0047    0.0045   0.0095   0.0006   0.0035  -0.0016   0.01    4.3
2137 425336.005   40.097023903 -105.147249846  1578.1289   1  21   0.0047    0.0045   0.0095   0.0006   0.0035  -0.0016   0.01    4.3
2137 425337.005   40.097023903 -105.147249852  1578.1278   1  21   0.0047    0.0045   0.0095   0.0006   0.0035  -0.0016   0.01    4.3
2137 425337.005   40.097023903 -105.147249852  1578.1278   1  21   0.0047    0.0045   0.0095   0.0006   0.0035  -0.0016   0.01    4.3
2137 425338.005   40.097023907 -105.147249861  1578.1298   1  21   0.0047    0.0045   0.0095   0.0006   0.0035  -0.0016   0.01    4.4
2137 425338.005   40.097023907 -105.147249861  1578.1298   1  21   0.0047    0.0045   0.0095   0.0006   0.0035  -0.0016   0.01    4.4
2137 425339.005   40.097023894 -105.147249859  1578.1307   1  21   0.0047    0.0045   0.0095   0.0006   0.0035  -0.0016   0.01    4.4
2137 425339.005   40.097023894 -105.147249859  1578.1307   1  21   0.0047    0.0045   0.0095   0.0006   0.0035  -0.0016   0.01    4.4
2137 425340.005   40.097023900 -105.147249850  1578.1309   1  21   0.0047    0.0045   0.0095   0.0006   0.0035  -0.0016   0.01    4.4
2137 425340.005   40.097023900 -105.147249850  1578.1309   1  21   0.0047    0.0045   0.0095   0.0006   0.0035  -0.0016   0.01    4.4
2137 425341.005   40.097023902 -105.147249844  1578.1286   1  21   0.0047    0.0045   0.0095   0.0006   0.0035  -0.0016   0.00    4.4
2137 425341.005   40.097023902 -105.147249844  1578.1286   1  21   0.0047    0.0045   0.0095   0.0006   0.0035  -0.0016   0.00    4.4
2137 425342.005   40.097023895 -105.147249844  1578.1289   1  21   0.0047    0.0045   0.0095   0.0006   0.0035  -0.0016   0.00    4.5
2137 425342.005   40.097023895 -105.147249844  1578.1289   1  21   0.0047    0.0045   0.0095   0.0006   0.0035  -0.0016   0.00    4.5
2137 425343.005   40.097023889 -105.147249847  1578.1310   1  21   0.0047    0.0045   0.0095   0.0006   0.0035  -0.0016   0.00    4.5
2137 425343.005   40.097023889 -105.147249847  1578.1310   1  21   0.0047    0.0045   0.0095   0.0006   0.0035  -0.0016   0.00    4.5
2137 425344.005   40.097023896 -105.147249856  1578.1277   1  21   0.0047    0.0045   0.0095   0.0006   0.0035  -0.0016   0.00    4.5
2137 425344.005   40.097023896 -105.147249856  1578.1277   1  21   0.0047    0.0045   0.0095   0.0006   0.0035  -0.0016   0.00    4.5
2137 425345.005   40.097023912 -105.147249844  1578.1313   1  21   0.0047    0.0045   0.0095   0.0006   0.0035  -0.0016   0.00    4.5
2137 425345.005   40.097023912 -105.147249844  1578.1313   1  21   0.0047    0.0045   0.0095   0.0006   0.0035  -0.0016   0.00    4.5
2137 425346.005   40.097023897 -105.147249838  1578.1301   1  21   0.0047    0.0045   0.0095   0.0006   0.0035  -0.0016   0.00    4.6
2137 425346.005   40.097023897 -105.147249838  1578.1301   1  21   0.0047    0.0045   0.0095   0.0006   0.0035  -0.0016   0.00    4.6
2137 425347.005   40.097023889 -105.147249850  1578.1312   1  21   0.0047    0.0045   0.0095   0.0006   0.0035  -0.0016   0.00    4.6
2137 425347.005   40.097023889 -105.147249850  1578.1312   1  21   0.0047    0.0045   0.0095   0.0006   0.0035  -0.0016   0.00    4.6
2137 425348.005   40.097023904 -105.147249838  1578.1288   1  21   0.0047    0.0045   0.0095   0.0006   0.0035  -0.0016   0.01    4.6
2137 425348.005   40.097023904 -105.147249838  1578.1288   1  21   0.0047    0.0045   0.0095   0.0006   0.0035  -0.0016   0.01    4.6
2137 425349.005   40.097023894 -105.147249839  1578.1291   1  21   0.0047    0.0045   0.0095   0.0006   0.0035  -0.0016   0.01    4.6
2137 425349.005   40.097023894 -105.147249839  1578.1291   1  21   0.0047    0.0045   0.0095   0.0006   0.0035  -0.0016   0.01    4.6
2137 425350.005   40.097023900 -105.147249834  1578.1302   1  21   0.0047    0.0045   0.0095   0.0006   0.0035  -0.0016   0.01    4.6
2137 425350.005   40.097023900 -105.147249834  1578.1302   1  21   0.0047    0.0045   0.0095   0.0006   0.0035  -0.0016   0.01    4.6
2137 425351.005   40.097023888 -105.147249841  1578.1279   1  21   0.0047    0.0045   0.0095   0.0006   0.0035  -0.0016   0.01    4.6
2137 425351.005   40.097023888 -105.147249841  1578.1279   1  21   0.0047    0.0045   0.0095   0.0006   0.0035  -0.0016   0.01    4.6
2137 425352.005   40.097023890 -105.147249833  1578.1291   1  21   0.0047    0.0045   0.0095   0.0006   0.0035  -0.0016   0.01    4.7
2137 425352.005   40.097023890 -105.147249833  1578.1291   1  21   0.0047    0.0045   0.0095   0.0006   0.0035  -0.0016   0.01    4.7
2137 425353.005   40.097023899 -105.147249840  1578.1291   1  21   0.0047    0.0045   0.0095   0.0006   0.0035  -0.0016   0.01    4.7
2137 425353.005   40.097023899 -105.147249840  1578.1291   1  21   0.0047    0.0045   0.0095   0.0006   0.0035  -0.0016   0.01    4.7
2137 425354.005   40.097023894 -105.147249831  1578.1296   1  21   0.0047    0.0045   0.0095   0.0006   0.0035  -0.0016   0.01    4.7
2137 425354.005   40.097023894 -105.147249831  1578.1296   1  21   0.0047    0.0045   0.0095   0.0006   0.0035  -0.0016   0.01    4.7
2137 425355.005   40.097023899 -105.147249831  1578.1285   1  21   0.0047    0.0045   0.0095   0.0006   0.0035  -0.0016   0.01    4.7
2137 425355.005   40.097023899 -105.147249831  1578.1285   1  21   0.0047    0.0045   0.0095   0.0006   0.0035  -0.0016   0.01    4.7
2137 425356.005   40.097023890 -105.147249825  1578.1309   1  21   0.0047    0.0045   0.0095   0.0006   0.0035  -0.0016   0.00    4.7
2137 425356.005   40.097023890 -105.147249825  1578.1309   1  21   0.0047    0.0045   0.0095   0.0006   0.0035  -0.0016   0.00    4.7
2137 425357.005   40.097023901 -105.147249830  1578.1298   1  21   0.0047    0.0045   0.0095   0.0006   0.0035  -0.0016   0.00    4.8
2137 425357.005   40.097023901 -105.147249830  1578.1298   1  21   0.0047    0.0045   0.0095   0.0006   0.0035  -0.0016   0.00    4.8
2137 425358.005   40.097023908 -105.147249827  1578.1300   1  21   0.0047    0.0045   0.0095   0.0006   0.0035  -0.0016   0.00    4.8
2137 425358.005   40.097023908 -105.147249827  1578.1300   1  21   0.0047    0.0045   0.0095   0.0006   0.0035  -0.0016   0.00    4.8
2137 425359.005   40.097023908 -105.147249837  1578.1291   1  21   0.0047    0.0045   0.0095   0.0006   0.0035  -0.0016   0.00    4.8
2137 425359.005   40.097023908 -105.147249837  1578.1291   1  21   0.0047    0.0045   0.0095   0.0006   0.0035  -0.0016   0.00    4.8
2137 425360.005   40.097023891 -105.147249832  1578.1308   1  21   0.0047    0.0045   0.0095   0.0006   0.0035  -0.0016   0.00    4.8
2137 425360.005   40.097023891 -105.147249832  1578.1308   1  21   0.0047    0.0045   0.0095   0.0006   0.0035  -0.0016   0.00    4.8
2137 425361.005   40.097023911 -105.147249833  1578.1293   1  21   0.0047    0.0045   0.0095   0.0006   0.0035  -0.0016   0.00    4.8
2137 425361.005   40.097023911 -105.147249833  1578.1293   1  21   0.0047    0.0045   0.0095   0.0006   0.0035  -0.0016   0.00    4.8
2137 425362.005   40.097023902 -105.147249837  1578.1278   1  21   0.0047    0.0045   0.0095   0.0006   0.0035  -0.0016   0.00    4.9
2137 425362.005   40.097023902 -105.147249837  1578.1278   1  21   0.0047    0.0045   0.0095   0.0006   0.0035  -0.0016   0.00    4.9
2137 425363.005   40.097023903 -105.147249834  1578.1288   1  21   0.0047    0.0045   0.0095   0.0006   0.0035  -0.0016   0.00    4.9
2137 425363.005   40.097023903 -105.147249834  1578.1288   1  21   0.0047    0.0045   0.0095   0.0006   0.0035  -0.0016   0.00    4.9
2137 425364.005   40.097023902 -105.147249832  1578.1295   1  21   0.0047    0.0045   0.0095   0.0006   0.0035  -0.0016   0.00    4.9
2137 425364.005   40.097023902 -105.147249832  1578.1295   1  21   0.0047    0.0045   0.0095   0.0006   0.0035  -0.0016   0.00    4.9
2137 425365.005   40.097023907 -105.147249839  1578.1298   1  21   0.0047    0.0045   0.0095   0.0006   0.0035  -0.0016   0.00    4.9
2137 425365.005   40.097023907 -105.147249839  1578.1298   1  21   0.0047    0.0045   0.0095   0.0006   0.0035  -0.0016   0.00    4.9
2137 425366.005   40.097023901 -105.147249845  1578.1302   1  21   0.0047    0.0045   0.0095   0.0006   0.0035  -0.0016   0.00    4.9
2137 425366.005   40.097023901 -105.147249845  1578.1302   1  21   0.0047    0.0045   0.0095   0.0006   0.0035  -0.0016   0.00    4.9
2137 425367.005   40.097023907 -105.147249838  1578.1307   1  21   0.0047    0.0045   0.0095   0.0006   0.0035  -0.0015   0.00    4.9
2137 425367.005   40.097023907 -105.147249838  1578.1307   1  21   0.0047    0.0045   0.0095   0.0006   0.0035  -0.0015   0.00    4.9
2137 425368.005   40.097023905 -105.147249840  1578.1344   1  21   0.0047    0.0045   0.0095   0.0006   0.0035  -0.0015   0.00    4.9
2137 425368.005   40.097023905 -105.147249840  1578.1344   1  21   0.0047    0.0045   0.0095   0.0006   0.0035  -0.0015   0.00    4.9
2137 425369.005   40.097023909 -105.147249840  1578.1335   1  21   0.0047    0.0045   0.0095   0.0006   0.0035  -0.0015   0.00    5.0
2137 425369.005   40.097023909 -105.147249840  1578.1335   1  21   0.0047    0.0045   0.0095   0.0006   0.0035  -0.0015   0.00    5.0
2137 425370.005   40.097023909 -105.147249838  1578.1317   1  21   0.0047    0.0045   0.0095   0.0006   0.0035  -0.0015   0.00    5.0
2137 425370.005   40.097023909 -105.147249838  1578.1317   1  21   0.0047    0.0045   0.0095   0.0006   0.0035  -0.0015   0.00    5.0
2137 425371.005   40.097023902 -105.147249842  1578.1335   1  21   0.0047    0.0045   0.0095   0.0006   0.0035  -0.0015   0.00    5.0
2137 425371.005   40.097023902 -105.147249842  1578.1335   1  21   0.0047    0.0045   0.0095   0.0006   0.0035  -0.0015   0.00    5.0
2137 425372.005   40.097023892 -105.147249844  1578.1337   1  21   0.0047    0.0045   0.0095   0.0006   0.0035  -0.0015   0.01    5.0
2137 425372.005   40.097023892 -105.147249844  1578.1337   1  21   0.0047    0.0045   0.0095   0.0006   0.0035  -0.0015   0.01    5.0
2137 425373.005   40.097023904 -105.147249836  1578.1335   1  21   0.0047    0.0045   0.0095   0.0006   0.0035  -0.0015   0.01    5.0
2137 425373.005   40.097023904 -105.147249836  1578.1335   1  21   0.0047    0.0045   0.0095   0.0006   0.0035  -0.0015   0.01    5.0
2137 425374.005   40.097023900 -105.147249840  1578.1329   1  21   0.0047    0.0045   0.0095   0.0006   0.0035  -0.0015   0.01    5.0
2137 425374.005   40.097023900 -105.147249840  1578.1329   1  21   0.0047    0.0045   0.0095   0.0006   0.0035  -0.0015   0.01    5.0
2137 425375.005   40.097023900 -105.147249844  1578.1347   1  21   0.0047    0.0045   0.0095   0.0006   0.0035  -0.0015   0.01    5.0
2137 425375.005   40.097023900 -105.147249844  1578.1347   1  21   0.0047    0.0045   0.0095   0.0006   0.0035  -0.0015   0.01    5.0
2137 425376.005   40.097023900 -105.147249839  1578.1330   1  21   0.0047    0.0045   0.0095   0.0006   0.0035  -0.0015   0.01    5.1
2137 425376.005   40.097023900 -105.147249839  1578.1330   1  21   0.0047    0.0045   0.0095   0.0006   0.0035  -0.0015   0.01    5.1
2137 425377.005   40.097023895 -105.147249833  1578.1340   1  21   0.0047    0.0045   0.0095   0.0006   0.0035  -0.0015   0.01    5.1
2137 425377.005   40.097023895 -105.147249833  1578.1340   1  21   0.0047    0.0045   0.0095   0.0006   0.0035  -0.0015   0.01    5.1
2137 425378.005   40.097023892 -105.147249833  1578.1341   1  21   0.0047    0.0045   0.0095   0.0006   0.0035  -0.0015   0.01    5.1
2137 425378.005   40.097023892 -105.147249833  1578.1341   1  21   0.0047    0.0045   0.0095   0.0006   0.0035  -0.0015   0.01    5.1
2137 425379.005   40.097023895 -105.147249847  1578.1358   1  21   0.0047    0.0045   0.0095   0.0006   0.0035  -0.0015   0.01    5.1
2137 425379.005   40.097023895 -105.147249847  1578.1358   1  21   0.0047    0.0045   0.0095   0.0006   0.0035  -0.0015   0.01    5.1
2137 425380.005   40.097023894 -105.147249846  1578.1341   1  21   0.0047    0.0045   0.0095   0.0006   0.0035  -0.0015   0.01    5.1
2137 425380.005   40.097023894 -105.147249846  1578.1341   1  21   0.0047    0.0045   0.0095   0.0006   0.0035  -0.0015   0.01    5.1
2137 425381.005   40.097023898 -105.147249843  1578.1352   1  21   0.0047    0.0045   0.0095   0.0006   0.0035  -0.0015   0.01    5.2
2137 425381.005   40.097023898 -105.147249843  1578.1352   1  21   0.0047    0.0045   0.0095   0.0006   0.0035  -0.0015   0.01    5.2
2137 425382.005   40.097023897 -105.147249842  1578.1354   1  21   0.0047    0.0045   0.0095   0.0006   0.0035  -0.0015   0.01    5.2
2137 425382.005   40.097023897 -105.147249842  1578.1354   1  21   0.0047    0.0045   0.0095   0.0006   0.0035  -0.0015   0.01    5.2
2137 425383.005   40.097023901 -105.147249848  1578.1356   1  21   0.0047    0.0045   0.0095   0.0006   0.0035  -0.0015   0.01    5.2
2137 425383.005   40.097023901 -105.147249848  1578.1356   1  21   0.0047    0.0045   0.0095   0.0006   0.0035  -0.0015   0.01    5.2
2137 425384.005   40.097023893 -105.147249854  1578.1350   1  21   0.0047    0.0045   0.0095   0.0006   0.0035  -0.0015   0.01    5.2
2137 425384.005   40.097023893 -105.147249854  1578.1350   1  21   0.0047    0.0045   0.0095   0.0006   0.0035  -0.0015   0.01    5.2
2137 425385.005   40.097023887 -105.147249833  1578.1365   1  21   0.0047    0.0045   0.0095   0.0006   0.0035  -0.0015   0.01    5.2
2137 425385.005   40.097023887 -105.147249833  1578.1365   1  21   0.0047    0.0045   0.0095   0.0006   0.0035  -0.0015   0.01    5.2
2137 425386.005   40.097023892 -105.147249844  1578.1365   1  21   0.0047    0.0045   0.0095   0.0006   0.0035  -0.0015   0.01    5.2
2137 425386.005   40.097023892 -105.147249844  1578.1365   1  21   0.0047    0.0045   0.0095   0.0006   0.0035  -0.0015   0.01    5.2
2137 425387.005   40.097023891 -105.147249845  1578.1354   1  21   0.0047    0.0045   0.0095   0.0006   0.0035  -0.0015   0.01    5.3
2137 425387.005   40.097023891 -105.147249845  1578.1354   1  21   0.0047    0.0045   0.0095   0.0006   0.0035  -0.0015   0.01    5.3
2137 425388.005   40.097023889 -105.147249844  1578.1369   1  21   0.0047    0.0045   0.0095   0.0006   0.0035  -0.0015   0.01    5.3
2137 425388.005   40.097023889 -105.147249844  1578.1369   1  21   0.0047    0.0045   0.0095   0.0006   0.0035  -0.0015   0.01    5.3
2137 425389.006   40.097023891 -105.147249844  1578.1366   1  21   0.0047    0.0045   0.0095   0.0006   0.0035  -0.0015   0.01    5.3
2137 425389.006   40.097023891 -105.147249844  1578.1366   1  21   0.0047    0.0045   0.0095   0.0006   0.0035  -0.0015   0.01    5.3
2137 425390.006   40.097023888 -105.147249851  1578.1365   1  21   0.0047    0.0045   0.0095   0.0006   0.0035  -0.0015   0.01    5.3
2137 425390.006   40.097023888 -105.147249851  1578.1365   1  21   0.0047    0.0045   0.0095   0.0006   0.0035  -0.0015   0.01    5.3
2137 425391.006   40.097023899 -105.147249851  1578.1360   1  21   0.0047    0.0045   0.0095   0.0006   0.0035  -0.0015   0.01    5.3
2137 425391.006   40.097023899 -105.147249851  1578.1360   1  21   0.0047    0.0045   0.0095   0.0006   0.0035  -0.0015   0.01    5.3
2137 425392.006   40.097023884 -105.147249844  1578.1387   1  21   0.0047    0.0045   0.0095   0.0006   0.0035  -0.0015   0.01    5.3
2137 425392.006   40.097023884 -105.147249844  1578.1387   1  21   0.0047    0.0045   0.0095   0.0006   0.0035  -0.0015   0.01    5.3
2137 425393.006   40.097023882 -105.147249844  1578.1390   1  21   0.0047    0.0045   0.0095   0.0006   0.0035  -0.0015   0.01    5.3
2137 425393.006   40.097023882 -105.147249844  1578.1390   1  21   0.0047    0.0045   0.0095   0.0006   0.0035  -0.0015   0.01    5.3
2137 425394.006   40.097023883 -105.147249851  1578.1369   1  21   0.0047    0.0045   0.0095   0.0006   0.0035  -0.0015   0.01    5.3
2137 425394.006   40.097023883 -105.147249851  1578.1369   1  21   0.0047    0.0045   0.0095   0.0006   0.0035  -0.0015   0.01    5.3
2137 425395.006   40.097023891 -105.147249873  1578.1385   1  21   0.0047    0.0045   0.0095   0.0006   0.0035  -0.0015   0.01    5.4
2137 425395.006   40.097023891 -105.147249873  1578.1385   1  21   0.0047    0.0045   0.0095   0.0006   0.0035  -0.0015   0.01    5.4
2137 425396.006   40.097023891 -105.147249872  1578.1387   1  21   0.0047    0.0045   0.0095   0.0006   0.0035  -0.0015   0.01    5.4
2137 425396.006   40.097023891 -105.147249872  1578.1387   1  21   0.0047    0.0045   0.0095   0.0006   0.0035  -0.0015   0.01    5.4
2137 425397.006   40.097023892 -105.147249858  1578.1384   1  21   0.0047    0.0045   0.0095   0.0006   0.0035  -0.0015   0.01    5.4
2137 425397.006   40.097023892 -105.147249858  1578.1384   1  21   0.0047    0.0045   0.0095   0.0006   0.0035  -0.0015   0.01    5.4
2137 425398.006   40.097023891 -105.147249867  1578.1363   1  21   0.0047    0.0045   0.0095   0.0006   0.0035  -0.0015   0.01    5.4
2137 425398.006   40.097023891 -105.147249867  1578.1363   1  21   0.0047    0.0045   0.0095   0.0006   0.0035  -0.0015   0.01    5.4
2137 425399.006   40.097023884 -105.147249864  1578.1357   1  21   0.0047    0.0045   0.0095   0.0006   0.0035  -0.0015   0.01    5.4
2137 425399.006   40.097023884 -105.147249864  1578.1357   1  21   0.0047    0.0045   0.0095   0.0006   0.0035  -0.0015   0.01    5.4
2137 425400.006   40.097023892 -105.147249869  1578.1373   1  21   0.0047    0.0045   0.0095   0.0006   0.0035  -0.0015   0.01    5.4
2137 425400.006   40.097023892 -105.147249869  1578.1373   1  21   0.0047    0.0045   0.0095   0.0006   0.0035  -0.0015   0.01    5.4
2137 425401.006   40.097023893 -105.147249867  1578.1358   1  21   0.0047    0.0045   0.0095   0.0006   0.0035  -0.0015   0.01    5.4
2137 425401.006   40.097023893 -105.147249867  1578.1358   1  21   0.0047    0.0045   0.0095   0.0006   0.0035  -0.0015   0.01    5.4
2137 425402.006   40.097023890 -105.147249866  1578.1356   1  21   0.0047    0.0045   0.0095   0.0006   0.0035  -0.0015   0.01    5.4
2137 425402.006   40.097023890 -105.147249866  1578.1356   1  21   0.0047    0.0045   0.0095   0.0006   0.0035  -0.0015   0.01    5.4
2137 425403.006   40.097023889 -105.147249860  1578.1362   1  21   0.0047    0.0045   0.0095   0.0006   0.0035  -0.0015   0.01    5.4
2137 425403.006   40.097023889 -105.147249860  1578.1362   1  21   0.0047    0.0045   0.0095   0.0006   0.0035  -0.0015   0.01    5.4
2137 425404.006   40.097023893 -105.147249873  1578.1342   1  21   0.0047    0.0045   0.0095   0.0006   0.0035  -0.0015   0.01    5.4
2137 425404.006   40.097023893 -105.147249873  1578.1342   1  21   0.0047    0.0045   0.0095   0.0006   0.0035  -0.0015   0.01    5.4
2137 425405.006   40.097023894 -105.147249868  1578.1354   1  21   0.0047    0.0045   0.0095   0.0006   0.0035  -0.0015   0.01    5.5
2137 425405.006   40.097023894 -105.147249868  1578.1354   1  21   0.0047    0.0045   0.0095   0.0006   0.0035  -0.0015   0.01    5.5
2137 425406.006   40.097023893 -105.147249869  1578.1334   1  21   0.0047    0.0045   0.0095   0.0006   0.0035  -0.0015   0.01    5.5
2137 425406.006   40.097023893 -105.147249869  1578.1334   1  21   0.0047    0.0045   0.0095   0.0006   0.0035  -0.0015   0.01    5.5
2137 425407.006   40.097023894 -105.147249863  1578.1341   1  21   0.0047    0.0045   0.0095   0.0006   0.0035  -0.0015   0.01    5.5
2137 425407.006   40.097023894 -105.147249863  1578.1341   1  21   0.0047    0.0045   0.0095   0.0006   0.0035  -0.0015   0.01    5.5
2137 425408.006   40.097023889 -105.147249861  1578.1343   1  21   0.0047    0.0045   0.0095   0.0006   0.0035  -0.0015   0.01    5.5
2137 425408.006   40.097023889 -105.147249861  1578.1343   1  21   0.0047    0.0045   0.0095   0.0006   0.0035  -0.0015   0.01    5.5
2137 425409.006   40.097023893 -105.147249869  1578.1335   1  21   0.0047    0.0045   0.0095   0.0006   0.0035  -0.0015   0.01    5.5
2137 425409.006   40.097023893 -105.147249869  1578.1335   1  21   0.0047    0.0045   0.0095   0.0006   0.0035  -0.0015   0.01    5.5
2137 425410.006   40.097023893 -105.147249858  1578.1347   1  21   0.0047    0.0045   0.0095   0.0006   0.0035  -0.0015   0.01    5.5
2137 425410.006   40.097023893 -105.147249858  1578.1347   1  21   0.0047    0.0045   0.0095   0.0006   0.0035  -0.0015   0.01    5.5
2137 425411.006   40.097023902 -105.147249857  1578.1339   1  21   0.0047    0.0045   0.0095   0.0006   0.0035  -0.0015   0.01    5.5
2137 425411.006   40.097023902 -105.147249857  1578.1339   1  21   0.0047    0.0045   0.0095   0.0006   0.0035  -0.0015   0.01    5.5
2137 425412.006   40.097023907 -105.147249861  1578.1342   1  21   0.0047    0.0045   0.0095   0.0006   0.0035  -0.0015   0.01    5.5
2137 425412.006   40.097023907 -105.147249861  1578.1342   1  21   0.0047    0.0045   0.0095   0.0006   0.0035  -0.0015   0.01    5.5
2137 425413.006   40.097023888 -105.147249863  1578.1338   1  21   0.0047    0.0045   0.0095   0.0006   0.0035  -0.0015   0.01    5.5
2137 425413.006   40.097023888 -105.147249863  1578.1338   1  21   0.0047    0.0045   0.0095   0.0006   0.0035  -0.0015   0.01    5.5
2137 425414.006   40.097023897 -105.147249854  1578.1334   1  21   0.0047    0.0045   0.0095   0.0006   0.0035  -0.0015   0.01    5.5
2137 425414.006   40.097023897 -105.147249854  1578.1334   1  21   0.0047    0.0045   0.0095   0.0006   0.0035  -0.0015   0.01    5.5
2137 425415.006   40.097023889 -105.147249859  1578.1343   1  21   0.0047    0.0045   0.0095   0.0006   0.0035  -0.0015   0.01    5.5
2137 425415.006   40.097023889 -105.147249859  1578.1343   1  21   0.0047    0.0045   0.0095   0.0006   0.0035  -0.0015   0.01    5.5
2137 425416.006   40.097023892 -105.147249855  1578.1336   1  21   0.0047    0.0045   0.0095   0.0006   0.0035  -0.0015   0.01    5.5
2137 425416.006   40.097023892 -105.147249855  1578.1336   1  21   0.0047    0.0045   0.0095   0.0006   0.0035  -0.0015   0.01    5.5
2137 425417.006   40.097023885 -105.147249856  1578.1335   1  21   0.0047    0.0045   0.0095   0.0006   0.0035  -0.0015   0.01    5.5
2137 425417.006   40.097023885 -105.147249856  1578.1335   1  21   0.0047    0.0045   0.0095   0.0006   0.0035  -0.0015   0.01    5.5
2137 425418.006   40.097023902 -105.147249860  1578.1324   1  21   0.0047    0.0045   0.0095   0.0006   0.0035  -0.0015   0.01    5.5
2137 425418.006   40.097023902 -105.147249860  1578.1324   1  21   0.0047    0.0045   0.0095   0.0006   0.0035  -0.0015   0.01    5.5
2137 425419.006   40.097023897 -105.147249860  1578.1318   1  21   0.0047    0.0045   0.0095   0.0006   0.0035  -0.0015   0.01    5.5
2137 425419.006   40.097023897 -105.147249860  1578.1318   1  21   0.0047    0.0045   0.0095   0.0006   0.0035  -0.0015   0.01    5.5
2137 425420.006   40.097023886 -105.147249852  1578.1329   1  21   0.0047    0.0045   0.0095   0.0006   0.0035  -0.0015   0.01    5.5
2137 425420.006   40.097023886 -105.147249852  1578.1329   1  21   0.0047    0.0045   0.0095   0.0006   0.0035  -0.0015   0.01    5.5
2137 425421.006   40.097023895 -105.147249846  1578.1324   1  21   0.0047    0.0045   0.0095   0.0006   0.0035  -0.0014   0.01    5.6
2137 425421.006   40.097023895 -105.147249846  1578.1324   1  21   0.0047    0.0045   0.0095   0.0006   0.0035  -0.0014   0.01    5.6
2137 425422.006   40.097023884 -105.147249853  1578.1330   1  21   0.0047    0.0045   0.0095   0.0006   0.0035  -0.0014   0.01    5.6
2137 425422.006   40.097023884 -105.147249853  1578.1330   1  21   0.0047    0.0045   0.0095   0.0006   0.0035  -0.0014   0.01    5.6
2137 425423.006   40.097023883 -105.147249848  1578.1300   1  21   0.0047    0.0045   0.0095   0.0006   0.0035  -0.0014   0.01    5.6
2137 425423.006   40.097023883 -105.147249848  1578.1300   1  21   0.0047    0.0045   0.0095   0.0006   0.0035  -0.0014   0.01    5.6
2137 425424.006   40.097023892 -105.147249866  1578.1314   1  21   0.0047    0.0045   0.0095   0.0006   0.0035  -0.0014   0.01    5.6
2137 425424.006   40.097023892 -105.147249866  1578.1314   1  21   0.0047    0.0045   0.0095   0.0006   0.0035  -0.0014   0.01    5.6
2137 425425.006   40.097023877 -105.147249845  1578.1307   1  21   0.0047    0.0045   0.0095   0.0006   0.0035  -0.0014   0.01    5.6
2137 425425.006   40.097023877 -105.147249845  1578.1307   1  21   0.0047    0.0045   0.0095   0.0006   0.0035  -0.0014   0.01    5.6
2137 425426.006   40.097023884 -105.147249846  1578.1310   1  21   0.0047    0.0045   0.0095   0.0006   0.0035  -0.0014   0.01    5.6
2137 425426.006   40.097023884 -105.147249846  1578.1310   1  21   0.0047    0.0045   0.0095   0.0006   0.0035  -0.0014   0.01    5.6
2137 425427.006   40.097023880 -105.147249851  1578.1311   1  21   0.0047    0.0045   0.0095   0.0006   0.0035  -0.0014   0.01    5.6
2137 425427.006   40.097023880 -105.147249851  1578.1311   1  21   0.0047    0.0045   0.0095   0.0006   0.0035  -0.0014   0.01    5.6
2137 425428.006   40.097023880 -105.147249857  1578.1294   1  21   0.0047    0.0045   0.0095   0.0006   0.0035  -0.0014   0.01    5.7
2137 425428.006   40.097023880 -105.147249857  1578.1294   1  21   0.0047    0.0045   0.0095   0.0006   0.0035  -0.0014   0.01    5.7
2137 425429.006   40.097023871 -105.147249843  1578.1315   1  21   0.0047    0.0045   0.0094   0.0006   0.0035  -0.0014   0.01    5.7
2137 425429.006   40.097023871 -105.147249843  1578.1315   1  21   0.0047    0.0045   0.0094   0.0006   0.0035  -0.0014   0.01    5.7
2137 425430.006   40.097023882 -105.147249836  1578.1324   1  21   0.0047    0.0045   0.0094   0.0006   0.0035  -0.0014   0.01    5.7
2137 425430.006   40.097023882 -105.147249836  1578.1324   1  21   0.0047    0.0045   0.0094   0.0006   0.0035  -0.0014   0.01    5.7
2137 425431.006   40.097023886 -105.147249838  1578.1309   1  21   0.0047    0.0045   0.0094   0.0006   0.0035  -0.0014   0.01    5.7
2137 425431.006   40.097023886 -105.147249838  1578.1309   1  21   0.0047    0.0045   0.0094   0.0006   0.0035  -0.0014   0.01    5.7
2137 425432.006   40.097023897 -105.147249847  1578.1311   1  21   0.0047    0.0045   0.0094   0.0006   0.0035  -0.0014   0.01    5.7
2137 425432.006   40.097023897 -105.147249847  1578.1311   1  21   0.0047    0.0045   0.0094   0.0006   0.0035  -0.0014   0.01    5.7
2137 425433.006   40.097023890 -105.147249844  1578.1330   1  21   0.0047    0.0045   0.0094   0.0006   0.0035  -0.0014   0.01    5.7
2137 425433.006   40.097023890 -105.147249844  1578.1330   1  21   0.0047    0.0045   0.0094   0.0006   0.0035  -0.0014   0.01    5.7
2137 425434.006   40.097023887 -105.147249848  1578.1301   1  21   0.0047    0.0045   0.0094   0.0006   0.0035  -0.0014   0.01    5.7
2137 425434.006   40.097023887 -105.147249848  1578.1301   1  21   0.0047    0.0045   0.0094   0.0006   0.0035  -0.0014   0.01    5.7
2137 425435.006   40.097023874 -105.147249862  1578.1304   1  21   0.0047    0.0045   0.0094   0.0006   0.0035  -0.0014   0.01    5.7
2137 425435.006   40.097023874 -105.147249862  1578.1304   1  21   0.0047    0.0045   0.0094   0.0006   0.0035  -0.0014   0.01    5.7
2137 425436.006   40.097023884 -105.147249851  1578.1328   1  21   0.0047    0.0045   0.0094   0.0006   0.0035  -0.0014   0.01    5.7
2137 425436.006   40.097023884 -105.147249851  1578.1328   1  21   0.0047    0.0045   0.0094   0.0006   0.0035  -0.0014   0.01    5.7
2137 425437.006   40.097023869 -105.147249844  1578.1312   1  21   0.0047    0.0045   0.0094   0.0006   0.0035  -0.0014   0.01    5.8
2137 425437.006   40.097023869 -105.147249844  1578.1312   1  21   0.0047    0.0045   0.0094   0.0006   0.0035  -0.0014   0.01    5.8
2137 425438.006   40.097023880 -105.147249851  1578.1331   1  21   0.0047    0.0045   0.0094   0.0006   0.0035  -0.0014   0.01    5.8
2137 425438.006   40.097023880 -105.147249851  1578.1331   1  21   0.0047    0.0045   0.0094   0.0006   0.0035  -0.0014   0.01    5.8
2137 425439.006   40.097023875 -105.147249851  1578.1339   1  21   0.0047    0.0045   0.0094   0.0006   0.0035  -0.0014   0.01    5.8
2137 425439.006   40.097023875 -105.147249851  1578.1339   1  21   0.0047    0.0045   0.0094   0.0006   0.0035  -0.0014   0.01    5.8
2137 425440.006   40.097023883 -105.147249846  1578.1332   1  21   0.0047    0.0045   0.0094   0.0006   0.0035  -0.0014   0.01    5.8
2137 425440.006   40.097023883 -105.147249846  1578.1332   1  21   0.0047    0.0045   0.0094   0.0006   0.0035  -0.0014   0.01    5.8
2137 425441.006   40.097023877 -105.147249849  1578.1323   1  21   0.0047    0.0045   0.0094   0.0006   0.0035  -0.0014   0.01    5.8
2137 425441.006   40.097023877 -105.147249849  1578.1323   1  21   0.0047    0.0045   0.0094   0.0006   0.0035  -0.0014   0.01    5.8
2137 425442.006   40.097023875 -105.147249850  1578.1303   1  21   0.0047    0.0045   0.0094   0.0006   0.0035  -0.0014   0.01    5.8
2137 425442.006   40.097023875 -105.147249850  1578.1303   1  21   0.0047    0.0045   0.0094   0.0006   0.0035  -0.0014   0.01    5.8
2137 425443.006   40.097023868 -105.147249860  1578.1285   1  21   0.0047    0.0045   0.0094   0.0006   0.0035  -0.0014   0.01    5.8
2137 425443.006   40.097023868 -105.147249860  1578.1285   1  21   0.0047    0.0045   0.0094   0.0006   0.0035  -0.0014   0.01    5.8
2137 425444.006   40.097023877 -105.147249843  1578.1323   1  21   0.0047    0.0045   0.0094   0.0006   0.0035  -0.0014   0.01    5.8
2137 425444.006   40.097023877 -105.147249843  1578.1323   1  21   0.0047    0.0045   0.0094   0.0006   0.0035  -0.0014   0.01    5.8
2137 425445.006   40.097023866 -105.147249851  1578.1319   1  21   0.0047    0.0045   0.0094   0.0006   0.0035  -0.0014   0.01    5.8
2137 425445.006   40.097023866 -105.147249851  1578.1319   1  21   0.0047    0.0045   0.0094   0.0006   0.0035  -0.0014   0.01    5.8
2137 425446.006   40.097023873 -105.147249854  1578.1307   1  21   0.0047    0.0045   0.0094   0.0006   0.0035  -0.0014   0.01    5.8
2137 425446.006   40.097023873 -105.147249854  1578.1307   1  21   0.0047    0.0045   0.0094   0.0006   0.0035  -0.0014   0.01    5.8
2137 425447.006   40.097023872 -105.147249846  1578.1314   1  21   0.0047    0.0045   0.0094   0.0006   0.0035  -0.0014   0.01    5.8
2137 425447.006   40.097023872 -105.147249846  1578.1314   1  21   0.0047    0.0045   0.0094   0.0006   0.0035  -0.0014   0.01    5.8
2137 425448.006   40.097023871 -105.147249848  1578.1314   1  21   0.0047    0.0045   0.0094   0.0006   0.0035  -0.0014   0.01    5.8
2137 425448.006   40.097023871 -105.147249848  1578.1314   1  21   0.0047    0.0045   0.0094   0.0006   0.0035  -0.0014   0.01    5.8
2137 425449.006   40.097023861 -105.147249849  1578.1301   1  21   0.0047    0.0045   0.0094   0.0006   0.0035  -0.0014   0.01    5.8
2137 425449.006   40.097023861 -105.147249849  1578.1301   1  21   0.0047    0.0045   0.0094   0.0006   0.0035  -0.0014   0.01    5.8
2137 425450.006   40.097023866 -105.147249855  1578.1309   1  21   0.0047    0.0045   0.0094   0.0006   0.0035  -0.0014   0.01    5.8
2137 425450.006   40.097023866 -105.147249855  1578.1309   1  21   0.0047    0.0045   0.0094   0.0006   0.0035  -0.0014   0.01    5.8
2137 425451.006   40.097023876 -105.147249854  1578.1304   1  21   0.0047    0.0045   0.0094   0.0006   0.0035  -0.0014   0.01    5.8
2137 425451.006   40.097023876 -105.147249854  1578.1304   1  21   0.0047    0.0045   0.0094   0.0006   0.0035  -0.0014   0.01    5.8
2137 425452.006   40.097023867 -105.147249865  1578.1289   1  21   0.0047    0.0045   0.0094   0.0006   0.0035  -0.0014   0.01    5.8
2137 425452.006   40.097023867 -105.147249865  1578.1289   1  21   0.0047    0.0045   0.0094   0.0006   0.0035  -0.0014   0.01    5.8
2137 425453.006   40.097023861 -105.147249860  1578.1301   1  21   0.0047    0.0045   0.0094   0.0006   0.0035  -0.0014   0.01    5.8
2137 425453.006   40.097023861 -105.147249860  1578.1301   1  21   0.0047    0.0045   0.0094   0.0006   0.0035  -0.0014   0.01    5.8
2137 425454.006   40.097023880 -105.147249863  1578.1312   1  21   0.0047    0.0045   0.0094   0.0006   0.0035  -0.0014   0.01    5.9
2137 425454.006   40.097023880 -105.147249863  1578.1312   1  21   0.0047    0.0045   0.0094   0.0006   0.0035  -0.0014   0.01    5.9
2137 425455.006   40.097023877 -105.147249853  1578.1312   1  21   0.0047    0.0045   0.0094   0.0006   0.0035  -0.0014   0.01    5.9
2137 425455.006   40.097023877 -105.147249853  1578.1312   1  21   0.0047    0.0045   0.0094   0.0006   0.0035  -0.0014   0.01    5.9
2137 425456.006   40.097023862 -105.147249862  1578.1297   1  21   0.0047    0.0045   0.0094   0.0006   0.0035  -0.0014   0.01    5.9
2137 425456.006   40.097023862 -105.147249862  1578.1297   1  21   0.0047    0.0045   0.0094   0.0006   0.0035  -0.0014   0.01    5.9
2137 425457.006   40.097023865 -105.147249855  1578.1300   1  21   0.0047    0.0045   0.0094   0.0006   0.0035  -0.0014   0.01    5.9
2137 425457.006   40.097023865 -105.147249855  1578.1300   1  21   0.0047    0.0045   0.0094   0.0006   0.0035  -0.0014   0.01    5.9
2137 425458.006   40.097023877 -105.147249859  1578.1308   1  21   0.0047    0.0045   0.0094   0.0006   0.0035  -0.0014   0.01    5.9
2137 425458.006   40.097023877 -105.147249859  1578.1308   1  21   0.0047    0.0045   0.0094   0.0006   0.0035  -0.0014   0.01    5.9
2137 425459.006   40.097023871 -105.147249873  1578.1291   1  21   0.0047    0.0045   0.0094   0.0006   0.0035  -0.0014   0.01    5.9
2137 425459.006   40.097023871 -105.147249873  1578.1291   1  21   0.0047    0.0045   0.0094   0.0006   0.0035  -0.0014   0.01    5.9
2137 425460.006   40.097023865 -105.147249858  1578.1325   1  21   0.0047    0.0045   0.0094   0.0006   0.0035  -0.0014   0.01    5.9
2137 425460.006   40.097023865 -105.147249858  1578.1325   1  21   0.0047    0.0045   0.0094   0.0006   0.0035  -0.0014   0.01    5.9
2137 425461.006   40.097023870 -105.147249861  1578.1281   1  21   0.0047    0.0045   0.0094   0.0006   0.0035  -0.0014   0.01    5.9
2137 425461.006   40.097023870 -105.147249861  1578.1281   1  21   0.0047    0.0045   0.0094   0.0006   0.0035  -0.0014   0.01    5.9
2137 425462.006   40.097023853 -105.147249851  1578.1294   1  21   0.0047    0.0045   0.0094   0.0006   0.0035  -0.0014   0.01    5.9
2137 425462.006   40.097023853 -105.147249851  1578.1294   1  21   0.0047    0.0045   0.0094   0.0006   0.0035  -0.0014   0.01    5.9
2137 425463.006   40.097023875 -105.147249859  1578.1301   1  21   0.0047    0.0045   0.0094   0.0006   0.0035  -0.0014   0.01    5.9
2137 425463.006   40.097023875 -105.147249859  1578.1301   1  21   0.0047    0.0045   0.0094   0.0006   0.0035  -0.0014   0.01    5.9
2137 425464.006   40.097023871 -105.147249865  1578.1315   1  21   0.0047    0.0045   0.0094   0.0006   0.0035  -0.0014   0.01    5.9
2137 425464.006   40.097023871 -105.147249865  1578.1315   1  21   0.0047    0.0045   0.0094   0.0006   0.0035  -0.0014   0.01    5.9
2137 425465.006   40.097023877 -105.147249869  1578.1279   1  21   0.0047    0.0045   0.0094   0.0006   0.0035  -0.0014   0.01    5.9
2137 425465.006   40.097023877 -105.147249869  1578.1279   1  21   0.0047    0.0045   0.0094   0.0006   0.0035  -0.0014   0.01    5.9
2137 425466.006   40.097023870 -105.147249883  1578.1278   1  21   0.0047    0.0045   0.0094   0.0006   0.0035  -0.0014   0.01    5.9
2137 425466.006   40.097023870 -105.147249883  1578.1278   1  21   0.0047    0.0045   0.0094   0.0006   0.0035  -0.0014   0.01    5.9
2137 425467.006   40.097023869 -105.147249873  1578.1307   1  21   0.0047    0.0045   0.0094   0.0006   0.0035  -0.0014   0.01    5.9
2137 425467.006   40.097023869 -105.147249873  1578.1307   1  21   0.0047    0.0045   0.0094   0.0006   0.0035  -0.0014   0.01    5.9
2137 425468.006   40.097023881 -105.147249876  1578.1290   1  21   0.0047    0.0045   0.0094   0.0006   0.0035  -0.0014   0.01    5.9
2137 425468.006   40.097023881 -105.147249876  1578.1290   1  21   0.0047    0.0045   0.0094   0.0006   0.0035  -0.0014   0.01    5.9
2137 425469.006   40.097023882 -105.147249880  1578.1302   1  21   0.0047    0.0045   0.0094   0.0006   0.0035  -0.0014   0.01    6.0
2137 425469.006   40.097023882 -105.147249880  1578.1302   1  21   0.0047    0.0045   0.0094   0.0006   0.0035  -0.0014   0.01    6.0
2137 425470.006   40.097023875 -105.147249878  1578.1336   1  21   0.0047    0.0045   0.0094   0.0006   0.0035  -0.0014   0.01    6.0
2137 425470.006   40.097023875 -105.147249878  1578.1336   1  21   0.0047    0.0045   0.0094   0.0006   0.0035  -0.0014   0.01    6.0
2137 425471.006   40.097023871 -105.147249871  1578.1289   1  21   0.0047    0.0045   0.0094   0.0006   0.0035  -0.0014   0.01    6.0
2137 425471.006   40.097023871 -105.147249871  1578.1289   1  21   0.0047    0.0045   0.0094   0.0006   0.0035  -0.0014   0.01    6.0
2137 425472.006   40.097023864 -105.147249879  1578.1308   1  21   0.0047    0.0045   0.0094   0.0006   0.0035  -0.0013   0.01    6.0
2137 425472.006   40.097023864 -105.147249879  1578.1308   1  21   0.0047    0.0045   0.0094   0.0006   0.0035  -0.0013   0.01    6.0
2137 425473.006   40.097023857 -105.147249882  1578.1316   1  21   0.0047    0.0045   0.0094   0.0006   0.0035  -0.0013   0.01    6.0
2137 425473.006   40.097023857 -105.147249882  1578.1316   1  21   0.0047    0.0045   0.0094   0.0006   0.0035  -0.0013   0.01    6.0
2137 425474.006   40.097023878 -105.147249886  1578.1295   1  21   0.0047    0.0045   0.0094   0.0006   0.0035  -0.0013   0.01    6.0
2137 425474.006   40.097023878 -105.147249886  1578.1295   1  21   0.0047    0.0045   0.0094   0.0006   0.0035  -0.0013   0.01    6.0
2137 425475.006   40.097023868 -105.147249878  1578.1293   1  21   0.0047    0.0045   0.0094   0.0006   0.0035  -0.0013   0.01    6.0
2137 425475.006   40.097023868 -105.147249878  1578.1293   1  21   0.0047    0.0045   0.0094   0.0006   0.0035  -0.0013   0.01    6.0
2137 425476.006   40.097023908 -105.147249867  1578.1274   1  21   0.0047    0.0045   0.0094   0.0006   0.0035  -0.0013   0.01    6.0
2137 425476.006   40.097023908 -105.147249867  1578.1274   1  21   0.0047    0.0045   0.0094   0.0006   0.0035  -0.0013   0.01    6.0
2137 425477.006   40.097023917 -105.147249875  1578.1258   1  21   0.0047    0.0045   0.0094   0.0006   0.0035  -0.0013   0.01    6.0
2137 425477.006   40.097023917 -105.147249875  1578.1258   1  21   0.0047    0.0045   0.0094   0.0006   0.0035  -0.0013   0.01    6.0
2137 425478.006   40.097023910 -105.147249858  1578.1300   1  21   0.0047    0.0045   0.0094   0.0006   0.0035  -0.0013   0.01    6.0
2137 425478.006   40.097023910 -105.147249858  1578.1300   1  21   0.0047    0.0045   0.0094   0.0006   0.0035  -0.0013   0.01    6.0
2137 425479.006   40.097023909 -105.147249868  1578.1292   1  21   0.0047    0.0045   0.0094   0.0006   0.0035  -0.0013   0.01    6.0
2137 425479.006   40.097023909 -105.147249868  1578.1292   1  21   0.0047    0.0045   0.0094   0.0006   0.0035  -0.0013   0.01    6.0
2137 425480.006   40.097023902 -105.147249866  1578.1298   1  21   0.0047    0.0044   0.0094   0.0006   0.0035  -0.0013   0.01    6.0
2137 425480.006   40.097023902 -105.147249866  1578.1298   1  21   0.0047    0.0044   0.0094   0.0006   0.0035  -0.0013   0.01    6.0
2137 425481.006   40.097023895 -105.147249872  1578.1288   1  21   0.0047    0.0044   0.0094   0.0006   0.0034  -0.0013   0.01    6.0
2137 425481.006   40.097023895 -105.147249872  1578.1288   1  21   0.0047    0.0044   0.0094   0.0006   0.0034  -0.0013   0.01    6.0
2137 425482.006   40.097023897 -105.147249869  1578.1289   1  21   0.0047    0.0044   0.0094   0.0006   0.0034  -0.0013   0.01    6.0
2137 425482.006   40.097023897 -105.147249869  1578.1289   1  21   0.0047    0.0044   0.0094   0.0006   0.0034  -0.0013   0.01    6.0
2137 425483.006   40.097023902 -105.147249874  1578.1302   1  21   0.0047    0.0044   0.0094   0.0006   0.0034  -0.0013   0.01    6.0
2137 425483.006   40.097023902 -105.147249874  1578.1302   1  21   0.0047    0.0044   0.0094   0.0006   0.0034  -0.0013   0.01    6.0
2137 425484.006   40.097023909 -105.147249876  1578.1277   1  21   0.0047    0.0044   0.0094   0.0006   0.0034  -0.0013   0.01    6.0
2137 425484.006   40.097023909 -105.147249876  1578.1277   1  21   0.0047    0.0044   0.0094   0.0006   0.0034  -0.0013   0.01    6.0
2137 425485.006   40.097023898 -105.147249893  1578.1319   1  20   0.0047    0.0045   0.0095   0.0006   0.0033  -0.0013   0.01    7.7
2137 425485.006   40.097023898 -105.147249893  1578.1319   1  20   0.0047    0.0045   0.0095   0.0006   0.0033  -0.0013   0.01    7.7
2137 425486.006   40.097023893 -105.147249850  1578.1329   1  20   0.0047    0.0045   0.0095   0.0006   0.0033  -0.0013   0.01    7.7
2137 425486.006   40.097023893 -105.147249850  1578.1329   1  20   0.0047    0.0045   0.0095   0.0006   0.0033  -0.0013   0.01    7.7
2137 425487.006   40.097023993 -105.147248526  1578.1332   1  21   0.0047    0.0044   0.0094   0.0006   0.0034  -0.0013   0.01    6.0
2137 425487.006   40.097023993 -105.147248526  1578.1332   1  21   0.0047    0.0044   0.0094   0.0006   0.0034  -0.0013   0.01    6.0
2137 425488.006   40.097024949 -105.147236527  1578.1536   1  21   0.0047    0.0044   0.0094   0.0006   0.0034  -0.0013   0.01    6.0
2137 425488.006   40.097024949 -105.147236527  1578.1536   1  21   0.0047    0.0044   0.0094   0.0006   0.0034  -0.0013   0.01    6.0
2137 425489.006   40.097029182 -105.147206531  1578.2248   1  21   0.0047    0.0044   0.0094   0.0006   0.0034  -0.0013   0.01    6.0
2137 425489.006   40.097029182 -105.147206531  1578.2248   1  21   0.0047    0.0044   0.0094   0.0006   0.0034  -0.0013   0.01    6.0
2137 425490.006   40.097036056 -105.147157305  1578.3110   1  19   0.0049    0.0046   0.0098  -0.0011   0.0030   0.0012   0.01    7.8
2137 425490.006   40.097036056 -105.147157305  1578.3110   1  19   0.0049    0.0046   0.0098  -0.0011   0.0030   0.0012   0.01    7.8
2137 425491.006   40.097042034 -105.147091884  1578.4181   1  21   0.0049    0.0045   0.0096  -0.0010   0.0032   0.0011   0.01    6.2
2137 425491.006   40.097042034 -105.147091884  1578.4181   1  21   0.0049    0.0045   0.0096  -0.0010   0.0032   0.0011   0.01    6.2
2137 425492.006   40.097045619 -105.147011765  1578.5278   1  20   0.0048    0.0046   0.0096  -0.0007   0.0032  -0.0003   0.01    7.8
2137 425492.006   40.097045619 -105.147011765  1578.5278   1  20   0.0048    0.0046   0.0096  -0.0007   0.0032  -0.0003   0.01    7.8
2137 425493.006   40.097047726 -105.146918098  1578.6498   1  21   0.0047    0.0046   0.0097  -0.0003   0.0030  -0.0009   0.01    9.5
2137 425493.006   40.097047726 -105.146918098  1578.6498   1  21   0.0047    0.0046   0.0097  -0.0003   0.0030  -0.0009   0.01    9.5
2137 425494.006   40.097048755 -105.146814183  1578.7526   1  20   0.0047    0.0046   0.0096  -0.0001   0.0031  -0.0010   0.01    9.5
2137 425494.006   40.097048755 -105.146814183  1578.7526   1  20   0.0047    0.0046   0.0096  -0.0001   0.0031  -0.0010   0.01    9.5
2137 425495.006   40.097049640 -105.146702189  1578.8569   1  18   0.0052    0.0050   0.0115  -0.0021   0.0047  -0.0039   0.01   20.3
2137 425495.006   40.097049640 -105.146702189  1578.8569   1  18   0.0052    0.0050   0.0115  -0.0021   0.0047  -0.0039   0.01   20.3
2137 425496.006   40.097051232 -105.146587900  1578.9826   1  19   0.0052    0.0050   0.0115  -0.0021   0.0047  -0.0039   0.01   20.8
2137 425496.006   40.097051232 -105.146587900  1578.9826   1  19   0.0052    0.0050   0.0115  -0.0021   0.0047  -0.0039   0.01   20.8
2137 425497.006   40.097052704 -105.146471148  1579.1455   1  19   0.0054    0.0052   0.0117  -0.0022   0.0043  -0.0037   0.01   17.0
2137 425497.006   40.097052704 -105.146471148  1579.1455   1  19   0.0054    0.0052   0.0117  -0.0022   0.0043  -0.0037   0.01   17.0
2137 425498.006   40.097053307 -105.146354946  1579.3102   1  18   0.0054    0.0051   0.0117  -0.0024   0.0045  -0.0036   0.01   22.0
2137 425498.006   40.097053307 -105.146354946  1579.3102   1  18   0.0054    0.0051   0.0117  -0.0024   0.0045  -0.0036   0.01   22.0
2137 425499.006   40.097052860 -105.146238199  1579.4611   1  18   0.0054    0.0051   0.0116  -0.0024   0.0045  -0.0035   0.01   22.4
2137 425499.006   40.097052860 -105.146238199  1579.4611   1  18   0.0054    0.0051   0.0116  -0.0024   0.0045  -0.0035   0.01   22.4
2137 425500.006   40.097050477 -105.146119140  1579.5616   1  19   0.0053    0.0050   0.0115  -0.0022   0.0047  -0.0037   0.01   22.9
2137 425500.006   40.097050477 -105.146119140  1579.5616   1  19   0.0053    0.0050   0.0115  -0.0022   0.0047  -0.0037   0.01   22.9
2137 425501.006   40.097045405 -105.145999138  1579.6806   1  21   0.0053    0.0051   0.0116  -0.0019   0.0045  -0.0040   0.01   19.3
2137 425501.006   40.097045405 -105.145999138  1579.6806   1  21   0.0053    0.0051   0.0116  -0.0019   0.0045  -0.0040   0.01   19.3
2137 425502.006   40.097038084 -105.145878081  1579.8148   1  20   0.0056    0.0052   0.0113  -0.0005   0.0035  -0.0030   0.01   27.5
2137 425502.006   40.097038084 -105.145878081  1579.8148   1  20   0.0056    0.0052   0.0113  -0.0005   0.0035  -0.0030   0.01   27.5
