% program   : RTKPOST ver.demo5 b34d
% inp file  : C:\rtk\Code\rtklib-py\data\u-blox\rover.obs
% inp file  : C:\rtk\Code\rtklib-py\data\u-blox\tmg23590.obs
% inp file  : C:\rtk\Code\rtklib-py\data\u-blox\rover.nav
% obs start : 2020/12/24 22:08:00.0 GPST (week2137 425280.0s)
% obs end   : 2020/12/24 22:44:02.0 GPST (week2137 427442.0s)
% pos mode  : Kinematic
% freqs     : L1+L2/E5b
% solution  : Forward
% elev mask : 15.0 deg
% dynamics  : on
% tidecorr  : off
% ionos opt : Broadcast
% tropo opt : Saastamoinen
% ephemeris : Broadcast
% navi sys  : GPS GLONASS Galileo QZSS BDS NavIC SBAS
% amb res   : Fix and Hold
% amb glo   : Fix and Hold
% val thres : 3.0
% antenna1  :                       ( 0.0000  0.0000  0.0000)
% antenna2  :                       ( 0.0000  0.0000  0.0000)
% ref pos   : 40.129954154 -105.233055352  1669.9904
%
% (lat/lon/height=WGS84/ellipsoidal,Q=1:fix,2:float,3:sbas,4:dgps,5:single,6:ppp,ns=# of satellites)
%  GPST                  latitude(deg) longitude(deg)  height(m)   Q  ns   sdn(m)   sde(m)   sdu(m)  sdne(m)  sdeu(m)  sdun(m) age(s)  ratio
2020/12/24 22:08:00.000   40.097017052 -105.147247404  1578.7637   2  19   1.2451   1.1974   2.5165   0.2588   0.6254  -0.3037   0.00    0.0
2020/12/24 22:08:01.000   40.097017047 -105.147247086  1578.7097   2  19   0.9323   0.9052   1.8984   0.1702   0.5442  -0.2857   0.00    0.0
2020/12/24 22:08:02.000   40.097017038 -105.147247263  1578.6620   2  19   0.7766   0.7577   1.5867   0.1314   0.4767  -0.2564   0.00    0.0
2020/12/24 22:08:03.000   40.097017157 -105.147247314  1578.6451   2  19   0.6789   0.6647   1.3897   0.1086   0.4274  -0.2336   0.00    0.0
2020/12/24 22:08:04.000   40.097017123 -105.147247381  1578.5937   2  19   0.6102   0.5991   1.2503   0.0930   0.3900  -0.2162   0.00    0.0
2020/12/24 22:08:05.000   40.097017204 -105.147247328  1578.5670   2  19   0.5583   0.5497   1.1447   0.0812   0.3605  -0.2026   0.00    0.0
2020/12/24 22:08:06.000   40.097017045 -105.147247356  1578.5229   2  19   0.5172   0.5108   1.0609   0.0716   0.3363  -0.1919   0.00    0.0
2020/12/24 22:08:07.000   40.097016845 -105.147247495  1578.4952   2  19   0.4835   0.4790   0.9920   0.0633   0.3161  -0.1832   0.00    0.0
2020/12/24 22:08:08.000   40.097016672 -105.147247732  1578.4788   2  19   0.4552   0.4524   0.9339   0.0559   0.2988  -0.1760   0.00    0.0
2020/12/24 22:08:09.000   40.097016626 -105.147247858  1578.4890   2  19   0.4309   0.4297   0.8839   0.0490   0.2837  -0.1700   0.00    0.0
2020/12/24 22:08:10.000   40.097016560 -105.147248025  1578.4594   2  19   0.4097   0.4100   0.8402   0.0423   0.2704  -0.1650   0.00    0.0
2020/12/24 22:08:11.000   40.097016617 -105.147248042  1578.4414   2  19   0.3910   0.3928   0.8014   0.0355   0.2585  -0.1607   0.00    0.0
2020/12/24 22:08:12.000   40.097016509 -105.147248098  1578.4377   2  19   0.3742   0.3775   0.7667   0.0283   0.2478  -0.1569   0.00    0.0
2020/12/24 22:08:13.000   40.097016475 -105.147248004  1578.4699   2  19   0.3591   0.3638   0.7353   0.0199   0.2381  -0.1536   0.00    0.0
2020/12/24 22:08:14.000   40.097016477 -105.147247969  1578.4789   2  19   0.3453   0.3514   0.7067   0.0059   0.2291  -0.1508   0.00    0.0
2020/12/24 22:08:15.000   40.097016568 -105.147247954  1578.4883   2  19   0.3326   0.3402   0.6804  -0.0170   0.2209  -0.1482   0.00    0.0
2020/12/24 22:08:16.000   40.097016708 -105.147247810  1578.5063   2  20   0.3209   0.3286   0.6549  -0.0255   0.2159  -0.1456   0.00    0.0
2020/12/24 22:08:17.000   40.097016734 -105.147247802  1578.5254   2  20   0.3101   0.3188   0.6319  -0.0307   0.2098  -0.1433   0.00    0.0
2020/12/24 22:08:18.000   40.097016783 -105.147247871  1578.5351   2  20   0.3000   0.3097   0.6104  -0.0347   0.2039  -0.1412   0.00    0.0
2020/12/24 22:08:19.000   40.097016920 -105.147247899  1578.5668   2  20   0.2906   0.3014   0.5904  -0.0380   0.1984  -0.1393   0.00    0.0
2020/12/24 22:08:20.000   40.097016935 -105.147247975  1578.5742   2  20   0.2818   0.2936   0.5716  -0.0407   0.1930  -0.1375   0.00    0.0
2020/12/24 22:08:21.000   40.097017053 -105.147248057  1578.6040   2  20   0.2734   0.2864   0.5539  -0.0431   0.1880  -0.1358   0.00    0.0
2020/12/24 22:08:22.000   40.097017108 -105.147248233  1578.6004   2  20   0.2655   0.2796   0.5373  -0.0451   0.1831  -0.1341   0.00    0.0
2020/12/24 22:08:23.000   40.097017270 -105.147248380  1578.5984   2  20   0.2581   0.2733   0.5215  -0.0468   0.1785  -0.1326   0.00    0.0
2020/12/24 22:08:24.000   40.097017444 -105.147248474  1578.6019   2  20   0.2510   0.2673   0.5066  -0.0483   0.1740  -0.1311   0.00    0.0
2020/12/24 22:08:25.000   40.097017543 -105.147248556  1578.5971   2  20   0.2443   0.2617   0.4923  -0.0497   0.1698  -0.1296   0.00    0.0
2020/12/24 22:08:26.000   40.097017669 -105.147248650  1578.5828   2  20   0.2379   0.2564   0.4788  -0.0509   0.1657  -0.1282   0.00    0.0
2020/12/24 22:08:27.000   40.097017816 -105.147248741  1578.5757   2  20   0.2317   0.2513   0.4659  -0.0519   0.1618  -0.1267   0.00    0.0
2020/12/24 22:08:28.000   40.097017992 -105.147248796  1578.5583   2  20   0.2259   0.2465   0.4536  -0.0529   0.1580  -0.1253   0.00    0.0
2020/12/24 22:08:29.000   40.097018161 -105.147248858  1578.5650   2  20   0.2203   0.2420   0.4418  -0.0537   0.1544  -0.1240   0.00    0.0
2020/12/24 22:08:30.000   40.097023857 -105.147249859  1578.1303   1  20   0.0047   0.0045   0.0095   0.0006   0.0035  -0.0017   0.00    4.5
2020/12/24 22:08:31.000   40.097023872 -105.147249846  1578.1319   1  20   0.0047   0.0045   0.0095   0.0006   0.0035  -0.0017   0.00    4.6
2020/12/24 22:08:32.000   40.097023870 -105.147249858  1578.1319   1  20   0.0047   0.0045   0.0095   0.0006   0.0035  -0.0017   0.00    4.6
2020/12/24 22:08:33.000   40.097023868 -105.147249873  1578.1308   1  20   0.0047   0.0045   0.0095   0.0006   0.0035  -0.0017   0.00    4.7
2020/12/24 22:08:34.000   40.097023865 -105.147249859  1578.1305   1  20   0.0047   0.0045   0.0095   0.0006   0.0035  -0.0017   0.00    4.8
2020/12/24 22:08:35.000   40.097023869 -105.147249853  1578.1321   1  20   0.0047   0.0045   0.0095   0.0006   0.0035  -0.0017   0.00    4.8
2020/12/24 22:08:36.000   40.097023868 -105.147249862  1578.1321   1  20   0.0047   0.0045   0.0095   0.0006   0.0035  -0.0017   0.00    4.9
2020/12/24 22:08:37.000   40.097023872 -105.147249866  1578.1323   1  20   0.0047   0.0045   0.0095   0.0006   0.0035  -0.0017   0.00    4.9
2020/12/24 22:08:38.000   40.097023868 -105.147249865  1578.1308   1  20   0.0047   0.0045   0.0095   0.0006   0.0035  -0.0017   0.00    5.0
2020/12/24 22:08:39.000   40.097023881 -105.147249868  1578.1343   1  20   0.0047   0.0045   0.0095   0.0006   0.0035  -0.0017   0.00    5.0
2020/12/24 22:08:40.000   40.097023879 -105.147249872  1578.1324   1  20   0.0047   0.0045   0.0095   0.0006   0.0035  -0.0017   0.00    5.1
2020/12/24 22:08:41.000   40.097023873 -105.147249879  1578.1334   1  20   0.0047   0.0045   0.0095   0.0006   0.0035  -0.0017   0.00    5.1
2020/12/24 22:08:42.000   40.097023881 -105.147249870  1578.1333   1  20   0.0047   0.0045   0.0095   0.0006   0.0035  -0.0017   0.00    5.1
2020/12/24 22:08:43.000   40.097023878 -105.147249870  1578.1329   1  20   0.0047   0.0045   0.0095   0.0006   0.0035  -0.0017   0.00    5.1
2020/12/24 22:08:44.000   40.097023887 -105.147249878  1578.1355   1  20   0.0047   0.0045   0.0095   0.0006   0.0035  -0.0017   0.00    5.2
2020/12/24 22:08:45.000   40.097023888 -105.147249863  1578.1354   1  20   0.0047   0.0045   0.0095   0.0006   0.0035  -0.0017   0.00    5.2
2020/12/24 22:08:46.000   40.097023893 -105.147249872  1578.1376   1  20   0.0047   0.0045   0.0095   0.0006   0.0035  -0.0017   0.00    5.3
2020/12/24 22:08:47.000   40.097023888 -105.147249875  1578.1372   1  20   0.0047   0.0045   0.0095   0.0006   0.0035  -0.0017   0.00    5.3
2020/12/24 22:08:48.000   40.097023888 -105.147249867  1578.1354   1  20   0.0047   0.0045   0.0095   0.0006   0.0035  -0.0017   0.00    5.3
2020/12/24 22:08:49.000   40.097023893 -105.147249876  1578.1361   1  20   0.0047   0.0045   0.0095   0.0006   0.0035  -0.0016   0.00    5.3
2020/12/24 22:08:50.000   40.097023899 -105.147249867  1578.1279   1  20   0.0047   0.0045   0.0095   0.0006   0.0035  -0.0016   0.00    4.1
2020/12/24 22:08:51.000   40.097023910 -105.147249852  1578.1292   1  20   0.0047   0.0045   0.0095   0.0006   0.0035  -0.0016   0.00    4.2
2020/12/24 22:08:52.000   40.097023903 -105.147249854  1578.1292   1  20   0.0047   0.0045   0.0095   0.0006   0.0035  -0.0016   0.00    4.3
2020/12/24 22:08:53.000   40.097023895 -105.147249853  1578.1279   1  20   0.0047   0.0045   0.0095   0.0006   0.0035  -0.0016   0.00    4.3
2020/12/24 22:08:54.000   40.097023901 -105.147249857  1578.1297   1  20   0.0047   0.0045   0.0095   0.0006   0.0035  -0.0016   0.00    4.4
2020/12/24 22:08:55.000   40.097023900 -105.147249839  1578.1304   1  20   0.0047   0.0045   0.0095   0.0006   0.0035  -0.0016   0.00    4.5
2020/12/24 22:08:56.000   40.097023900 -105.147249847  1578.1293   1  20   0.0047   0.0045   0.0095   0.0006   0.0035  -0.0016   0.00    4.6
2020/12/24 22:08:57.000   40.097023901 -105.147249853  1578.1282   1  20   0.0047   0.0045   0.0095   0.0006   0.0035  -0.0016   0.00    4.6
2020/12/24 22:08:58.000   40.097023905 -105.147249862  1578.1303   1  20   0.0047   0.0045   0.0095   0.0006   0.0035  -0.0016   0.00    4.7
2020/12/24 22:08:59.000   40.097023892 -105.147249860  1578.1312   1  20   0.0047   0.0045   0.0095   0.0006   0.0035  -0.0016   0.00    4.8
2020/12/24 22:09:00.000   40.097023897 -105.147249850  1578.1315   1  20   0.0047   0.0045   0.0095   0.0006   0.0035  -0.0016   0.00    4.9
2020/12/24 22:09:01.000   40.097023900 -105.147249844  1578.1292   1  20   0.0047   0.0045   0.0095   0.0006   0.0035  -0.0016   0.00    4.9
2020/12/24 22:09:02.000   40.097023893 -105.147249844  1578.1296   1  20   0.0047   0.0045   0.0095   0.0006   0.0035  -0.0016   0.00    5.0
2020/12/24 22:09:03.000   40.097023887 -105.147249846  1578.1317   1  20   0.0047   0.0045   0.0095   0.0006   0.0035  -0.0016   0.00    5.1
2020/12/24 22:09:04.000   40.097023895 -105.147249856  1578.1285   1  20   0.0047   0.0045   0.0095   0.0006   0.0035  -0.0016   0.00    5.2
2020/12/24 22:09:05.000   40.097023910 -105.147249844  1578.1322   1  20   0.0047   0.0045   0.0095   0.0006   0.0035  -0.0016   0.00    5.2
2020/12/24 22:09:06.000   40.097023895 -105.147249838  1578.1310   1  20   0.0047   0.0045   0.0095   0.0006   0.0035  -0.0016   0.00    5.3
2020/12/24 22:09:07.000   40.097023887 -105.147249850  1578.1322   1  20   0.0047   0.0045   0.0095   0.0006   0.0035  -0.0016   0.00    5.3
2020/12/24 22:09:08.000   40.097023902 -105.147249838  1578.1299   1  20   0.0047   0.0045   0.0095   0.0006   0.0035  -0.0016   0.00    5.4
2020/12/24 22:09:09.000   40.097023893 -105.147249839  1578.1302   1  20   0.0047   0.0045   0.0095   0.0006   0.0035  -0.0016   0.00    5.4
2020/12/24 22:09:10.000   40.097023898 -105.147249834  1578.1313   1  20   0.0047   0.0045   0.0095   0.0006   0.0035  -0.0016   0.00    5.5
2020/12/24 22:09:11.000   40.097023886 -105.147249841  1578.1290   1  20   0.0047   0.0045   0.0095   0.0006   0.0035  -0.0016   0.00    5.5
2020/12/24 22:09:12.000   40.097023888 -105.147249833  1578.1304   1  20   0.0047   0.0045   0.0095   0.0006   0.0035  -0.0016   0.00    5.6
2020/12/24 22:09:13.000   40.097023897 -105.147249840  1578.1304   1  20   0.0047   0.0045   0.0095   0.0006   0.0035  -0.0016   0.00    5.6
2020/12/24 22:09:14.000   40.097023892 -105.147249831  1578.1309   1  20   0.0047   0.0045   0.0095   0.0006   0.0035  -0.0016   0.00    5.7
2020/12/24 22:09:15.000   40.097023897 -105.147249831  1578.1298   1  20   0.0047   0.0045   0.0095   0.0006   0.0035  -0.0016   0.00    5.7
2020/12/24 22:09:16.000   40.097023889 -105.147249824  1578.1323   1  20   0.0047   0.0045   0.0095   0.0006   0.0035  -0.0016   0.00    5.8
2020/12/24 22:09:17.000   40.097023899 -105.147249830  1578.1312   1  20   0.0047   0.0045   0.0095   0.0006   0.0035  -0.0016   0.00    5.9
2020/12/24 22:09:18.000   40.097023906 -105.147249827  1578.1315   1  20   0.0047   0.0045   0.0095   0.0006   0.0035  -0.0016   0.00    5.9
2020/12/24 22:09:19.000   40.097023907 -105.147249837  1578.1307   1  20   0.0047   0.0045   0.0095   0.0006   0.0035  -0.0016   0.00    6.0
2020/12/24 22:09:20.000   40.097023889 -105.147249832  1578.1324   1  20   0.0047   0.0045   0.0095   0.0006   0.0035  -0.0016   0.00    6.0
2020/12/24 22:09:21.000   40.097023909 -105.147249832  1578.1309   1  20   0.0047   0.0045   0.0095   0.0006   0.0035  -0.0016   0.00    6.1
2020/12/24 22:09:22.000   40.097023900 -105.147249836  1578.1295   1  20   0.0047   0.0045   0.0095   0.0006   0.0035  -0.0016   0.00    6.1
2020/12/24 22:09:23.000   40.097023902 -105.147249834  1578.1306   1  20   0.0047   0.0045   0.0095   0.0006   0.0035  -0.0016   0.00    6.2
2020/12/24 22:09:24.000   40.097023901 -105.147249833  1578.1313   1  20   0.0047   0.0045   0.0095   0.0006   0.0035  -0.0016   0.00    6.2
2020/12/24 22:09:25.000   40.097023906 -105.147249839  1578.1316   1  20   0.0047   0.0045   0.0095   0.0006   0.0035  -0.0015   0.00    6.3
2020/12/24 22:09:26.000   40.097023900 -105.147249846  1578.1320   1  20   0.0047   0.0045   0.0095   0.0006   0.0035  -0.0015   0.00    6.3
2020/12/24 22:09:27.000   40.097023905 -105.147249839  1578.1326   1  20   0.0047   0.0045   0.0095   0.0006   0.0035  -0.0015   0.00    6.4
2020/12/24 22:09:28.000   40.097023903 -105.147249840  1578.1363   1  20   0.0047   0.0045   0.0095   0.0006   0.0035  -0.0015   0.00    6.4
2020/12/24 22:09:29.000   40.097023908 -105.147249840  1578.1355   1  20   0.0047   0.0045   0.0095   0.0006   0.0035  -0.0015   0.00    6.4
2020/12/24 22:09:30.000   40.097023907 -105.147249838  1578.1337   1  20   0.0047   0.0045   0.0095   0.0006   0.0035  -0.0015   0.00    6.5
2020/12/24 22:09:31.000   40.097023901 -105.147249843  1578.1355   1  20   0.0047   0.0045   0.0095   0.0006   0.0035  -0.0015   0.00    6.6
2020/12/24 22:09:32.000   40.097023890 -105.147249844  1578.1357   1  20   0.0047   0.0045   0.0095   0.0006   0.0035  -0.0015   0.00    6.6
2020/12/24 22:09:33.000   40.097023902 -105.147249837  1578.1356   1  20   0.0047   0.0045   0.0095   0.0006   0.0035  -0.0015   0.00    6.7
2020/12/24 22:09:34.000   40.097023898 -105.147249841  1578.1350   1  20   0.0047   0.0045   0.0095   0.0006   0.0035  -0.0015   0.00    6.7
2020/12/24 22:09:35.000   40.097023898 -105.147249844  1578.1368   1  20   0.0047   0.0045   0.0095   0.0006   0.0035  -0.0015   0.00    6.8
2020/12/24 22:09:36.000   40.097023898 -105.147249840  1578.1351   1  20   0.0047   0.0045   0.0095   0.0006   0.0035  -0.0015   0.00    6.8
2020/12/24 22:09:37.000   40.097023893 -105.147249834  1578.1362   1  20   0.0047   0.0045   0.0095   0.0006   0.0035  -0.0015   0.00    6.9
2020/12/24 22:09:38.000   40.097023890 -105.147249834  1578.1363   1  20   0.0047   0.0045   0.0095   0.0006   0.0035  -0.0015   0.00    7.0
2020/12/24 22:09:39.000   40.097023893 -105.147249848  1578.1381   1  20   0.0047   0.0045   0.0095   0.0006   0.0035  -0.0015   0.00    7.0
2020/12/24 22:09:40.000   40.097023892 -105.147249847  1578.1364   1  20   0.0047   0.0045   0.0095   0.0006   0.0035  -0.0015   0.00    7.1
2020/12/24 22:09:41.000   40.097023896 -105.147249844  1578.1376   1  20   0.0047   0.0045   0.0095   0.0006   0.0035  -0.0015   0.00    7.2
2020/12/24 22:09:42.000   40.097023895 -105.147249843  1578.1378   1  20   0.0047   0.0045   0.0095   0.0006   0.0035  -0.0015   0.00    7.2
2020/12/24 22:09:43.000   40.097023900 -105.147249849  1578.1381   1  20   0.0047   0.0045   0.0095   0.0006   0.0035  -0.0015   0.00    7.3
2020/12/24 22:09:44.000   40.097023891 -105.147249856  1578.1375   1  20   0.0047   0.0045   0.0095   0.0006   0.0035  -0.0015   0.00    7.3
2020/12/24 22:09:45.000   40.097023885 -105.147249835  1578.1390   1  20   0.0047   0.0045   0.0095   0.0006   0.0035  -0.0015   0.00    7.4
2020/12/24 22:09:46.000   40.097023890 -105.147249845  1578.1391   1  20   0.0047   0.0045   0.0095   0.0006   0.0035  -0.0015   0.00    7.5
2020/12/24 22:09:47.000   40.097023889 -105.147249847  1578.1380   1  20   0.0047   0.0045   0.0095   0.0006   0.0035  -0.0015   0.00    7.5
2020/12/24 22:09:47.999   40.097023887 -105.147249846  1578.1395   1  20   0.0047   0.0045   0.0095   0.0006   0.0035  -0.0015   0.00    7.6
2020/12/24 22:09:49.000   40.097023890 -105.147249845  1578.1393   1  20   0.0047   0.0045   0.0095   0.0006   0.0035  -0.0015   0.01    7.7
2020/12/24 22:09:50.000   40.097023886 -105.147249852  1578.1392   1  20   0.0047   0.0045   0.0095   0.0006   0.0035  -0.0015   0.01    7.7
2020/12/24 22:09:51.000   40.097023897 -105.147249852  1578.1387   1  20   0.0047   0.0045   0.0095   0.0006   0.0035  -0.0015   0.01    7.8
2020/12/24 22:09:52.000   40.097023882 -105.147249846  1578.1415   1  20   0.0047   0.0045   0.0095   0.0006   0.0035  -0.0015   0.01    7.9
2020/12/24 22:09:53.000   40.097023880 -105.147249846  1578.1418   1  20   0.0047   0.0045   0.0095   0.0006   0.0035  -0.0015   0.01    8.0
2020/12/24 22:09:54.000   40.097023881 -105.147249852  1578.1397   1  20   0.0047   0.0045   0.0095   0.0006   0.0035  -0.0015   0.01    8.0
2020/12/24 22:09:55.000   40.097023889 -105.147249875  1578.1414   1  20   0.0047   0.0045   0.0095   0.0006   0.0035  -0.0015   0.01    8.1
2020/12/24 22:09:56.000   40.097023889 -105.147249873  1578.1416   1  20   0.0047   0.0045   0.0095   0.0006   0.0035  -0.0015   0.01    8.2
2020/12/24 22:09:57.000   40.097023891 -105.147249861  1578.1414   1  20   0.0047   0.0045   0.0095   0.0006   0.0035  -0.0015   0.01    8.2
2020/12/24 22:09:58.000   40.097023890 -105.147249869  1578.1393   1  20   0.0047   0.0045   0.0095   0.0006   0.0035  -0.0015   0.01    8.3
2020/12/24 22:09:59.000   40.097023883 -105.147249866  1578.1388   1  20   0.0047   0.0045   0.0095   0.0006   0.0035  -0.0015   0.01    8.4
2020/12/24 22:10:00.000   40.097023891 -105.147249871  1578.1404   1  20   0.0047   0.0045   0.0095   0.0006   0.0035  -0.0015   0.01    8.5
2020/12/24 22:10:01.000   40.097023891 -105.147249869  1578.1389   1  20   0.0047   0.0045   0.0095   0.0006   0.0035  -0.0015   0.01    8.5
2020/12/24 22:10:02.000   40.097023888 -105.147249867  1578.1388   1  20   0.0047   0.0045   0.0095   0.0006   0.0035  -0.0015   0.01    8.6
2020/12/24 22:10:03.000   40.097023888 -105.147249862  1578.1394   1  20   0.0047   0.0045   0.0095   0.0006   0.0035  -0.0015   0.01    8.7
2020/12/24 22:10:04.000   40.097023892 -105.147249875  1578.1374   1  20   0.0047   0.0045   0.0095   0.0006   0.0035  -0.0015   0.01    8.7
2020/12/24 22:10:05.000   40.097023893 -105.147249870  1578.1387   1  20   0.0047   0.0045   0.0095   0.0006   0.0035  -0.0015   0.01    8.8
2020/12/24 22:10:06.000   40.097023891 -105.147249870  1578.1367   1  20   0.0047   0.0045   0.0095   0.0006   0.0035  -0.0015   0.01    8.9
2020/12/24 22:10:07.000   40.097023892 -105.147249864  1578.1374   1  20   0.0047   0.0045   0.0095   0.0006   0.0035  -0.0015   0.01    9.0
2020/12/24 22:10:08.000   40.097023887 -105.147249862  1578.1376   1  20   0.0047   0.0045   0.0095   0.0006   0.0035  -0.0015   0.01    9.0
2020/12/24 22:10:09.000   40.097023892 -105.147249871  1578.1369   1  20   0.0047   0.0045   0.0095   0.0006   0.0035  -0.0015   0.01    9.1
2020/12/24 22:10:10.000   40.097023891 -105.147249860  1578.1380   1  20   0.0047   0.0045   0.0095   0.0006   0.0035  -0.0015   0.01    9.2
2020/12/24 22:10:11.000   40.097023901 -105.147249859  1578.1373   1  20   0.0047   0.0045   0.0095   0.0006   0.0035  -0.0015   0.01    9.3
2020/12/24 22:10:12.000   40.097023905 -105.147249863  1578.1377   1  20   0.0047   0.0045   0.0095   0.0006   0.0035  -0.0015   0.01    9.3
2020/12/24 22:10:13.000   40.097023886 -105.147249865  1578.1373   1  20   0.0047   0.0045   0.0095   0.0006   0.0035  -0.0015   0.01    9.4
2020/12/24 22:10:14.000   40.097023895 -105.147249856  1578.1369   1  20   0.0047   0.0045   0.0095   0.0006   0.0035  -0.0015   0.01    9.5
2020/12/24 22:10:15.000   40.097023887 -105.147249862  1578.1378   1  20   0.0047   0.0045   0.0095   0.0006   0.0035  -0.0015   0.01    9.5
2020/12/24 22:10:16.000   40.097023890 -105.147249857  1578.1372   1  20   0.0047   0.0045   0.0095   0.0006   0.0035  -0.0015   0.01    9.6
2020/12/24 22:10:17.000   40.097023884 -105.147249858  1578.1371   1  20   0.0047   0.0045   0.0095   0.0006   0.0035  -0.0015   0.01    9.7
2020/12/24 22:10:18.000   40.097023901 -105.147249863  1578.1360   1  20   0.0047   0.0045   0.0095   0.0006   0.0035  -0.0015   0.01    9.8
2020/12/24 22:10:19.000   40.097023896 -105.147249863  1578.1355   1  20   0.0047   0.0045   0.0095   0.0006   0.0035  -0.0014   0.01    9.8
2020/12/24 22:10:20.000   40.097023885 -105.147249855  1578.1366   1  20   0.0047   0.0045   0.0095   0.0006   0.0035  -0.0014   0.01    9.9
2020/12/24 22:10:21.000   40.097023893 -105.147249849  1578.1361   1  20   0.0047   0.0045   0.0095   0.0006   0.0035  -0.0014   0.01   10.0
2020/12/24 22:10:22.000   40.097023883 -105.147249856  1578.1367   1  20   0.0047   0.0045   0.0095   0.0006   0.0035  -0.0014   0.01   10.1
2020/12/24 22:10:23.000   40.097023882 -105.147249851  1578.1338   1  20   0.0047   0.0045   0.0095   0.0006   0.0035  -0.0014   0.01   10.2
2020/12/24 22:10:24.000   40.097023890 -105.147249869  1578.1353   1  20   0.0047   0.0045   0.0095   0.0006   0.0035  -0.0014   0.01   10.3
2020/12/24 22:10:25.000   40.097023875 -105.147249847  1578.1346   1  20   0.0047   0.0045   0.0095   0.0006   0.0035  -0.0014   0.01   10.4
2020/12/24 22:10:26.000   40.097023883 -105.147249848  1578.1348   1  20   0.0047   0.0045   0.0095   0.0006   0.0035  -0.0014   0.01   10.5
2020/12/24 22:10:27.000   40.097023879 -105.147249854  1578.1350   1  20   0.0047   0.0045   0.0095   0.0006   0.0035  -0.0014   0.01   10.6
2020/12/24 22:10:28.000   40.097023879 -105.147249859  1578.1334   1  20   0.0047   0.0045   0.0095   0.0006   0.0035  -0.0014   0.01   10.7
2020/12/24 22:10:29.000   40.097023870 -105.147249846  1578.1354   1  20   0.0047   0.0045   0.0094   0.0006   0.0035  -0.0014   0.01   10.8
2020/12/24 22:10:30.000   40.097023880 -105.147249839  1578.1364   1  20   0.0047   0.0045   0.0094   0.0006   0.0035  -0.0014   0.01   10.9
2020/12/24 22:10:31.000   40.097023885 -105.147249841  1578.1349   1  20   0.0047   0.0045   0.0094   0.0006   0.0035  -0.0014   0.01   11.0
2020/12/24 22:10:32.000   40.097023895 -105.147249850  1578.1352   1  20   0.0047   0.0045   0.0094   0.0006   0.0035  -0.0014   0.01   11.1
2020/12/24 22:10:33.000   40.097023888 -105.147249847  1578.1371   1  20   0.0047   0.0045   0.0094   0.0006   0.0035  -0.0014   0.01   11.2
2020/12/24 22:10:34.000   40.097023885 -105.147249851  1578.1342   1  20   0.0047   0.0045   0.0094   0.0006   0.0035  -0.0014   0.01   11.3
2020/12/24 22:10:35.000   40.097023872 -105.147249864  1578.1346   1  20   0.0047   0.0045   0.0094   0.0006   0.0035  -0.0014   0.01   11.4
2020/12/24 22:10:36.000   40.097023883 -105.147249854  1578.1370   1  20   0.0047   0.0045   0.0094   0.0006   0.0035  -0.0014   0.01   11.5
2020/12/24 22:10:37.000   40.097023868 -105.147249847  1578.1354   1  20   0.0047   0.0045   0.0094   0.0006   0.0035  -0.0014   0.01   11.5
2020/12/24 22:10:38.000   40.097023879 -105.147249854  1578.1373   1  20   0.0047   0.0045   0.0094   0.0006   0.0035  -0.0014   0.01   11.6
2020/12/24 22:10:39.000   40.097023873 -105.147249854  1578.1382   1  20   0.0047   0.0045   0.0094   0.0006   0.0035  -0.0014   0.01   11.7
2020/12/24 22:10:40.000   40.097023882 -105.147249850  1578.1375   1  20   0.0047   0.0045   0.0094   0.0006   0.0035  -0.0014   0.01   11.8
2020/12/24 22:10:41.000   40.097023875 -105.147249852  1578.1367   1  20   0.0047   0.0045   0.0094   0.0006   0.0035  -0.0014   0.01   11.9
2020/12/24 22:10:42.000   40.097023873 -105.147249853  1578.1347   1  20   0.0047   0.0045   0.0094   0.0006   0.0035  -0.0014   0.01   12.0
2020/12/24 22:10:43.000   40.097023866 -105.147249863  1578.1328   1  20   0.0047   0.0045   0.0094   0.0006   0.0035  -0.0014   0.01   12.0
2020/12/24 22:10:44.000   40.097023875 -105.147249847  1578.1367   1  20   0.0047   0.0045   0.0094   0.0006   0.0035  -0.0014   0.01   12.1
2020/12/24 22:10:45.000   40.097023864 -105.147249855  1578.1363   1  20   0.0047   0.0045   0.0094   0.0006   0.0035  -0.0014   0.01   12.2
2020/12/24 22:10:46.000   40.097023872 -105.147249859  1578.1351   1  20   0.0047   0.0045   0.0094   0.0006   0.0035  -0.0014   0.01   12.3
2020/12/24 22:10:47.000   40.097023870 -105.147249851  1578.1358   1  20   0.0047   0.0045   0.0094   0.0006   0.0035  -0.0014   0.01   12.4
2020/12/24 22:10:48.000   40.097023870 -105.147249853  1578.1359   1  20   0.0047   0.0045   0.0094   0.0006   0.0035  -0.0014   0.01   12.4
2020/12/24 22:10:49.000   40.097023859 -105.147249853  1578.1346   1  20   0.0047   0.0045   0.0094   0.0006   0.0035  -0.0014   0.01   12.5
2020/12/24 22:10:50.000   40.097023864 -105.147249860  1578.1354   1  20   0.0047   0.0045   0.0094   0.0006   0.0035  -0.0014   0.01   12.6
2020/12/24 22:10:51.000   40.097023874 -105.147249859  1578.1350   1  20   0.0047   0.0045   0.0094   0.0006   0.0035  -0.0014   0.01   12.7
2020/12/24 22:10:52.000   40.097023865 -105.147249870  1578.1335   1  20   0.0047   0.0045   0.0094   0.0006   0.0035  -0.0014   0.01   12.8
2020/12/24 22:10:53.000   40.097023859 -105.147249865  1578.1347   1  20   0.0047   0.0045   0.0094   0.0006   0.0035  -0.0014   0.01   12.9
2020/12/24 22:10:54.000   40.097023878 -105.147249868  1578.1359   1  20   0.0047   0.0045   0.0094   0.0006   0.0035  -0.0014   0.01   13.0
2020/12/24 22:10:55.000   40.097023875 -105.147249858  1578.1358   1  20   0.0047   0.0045   0.0094   0.0006   0.0035  -0.0014   0.01   13.1
2020/12/24 22:10:56.000   40.097023860 -105.147249867  1578.1344   1  20   0.0047   0.0045   0.0094   0.0006   0.0035  -0.0014   0.01   13.2
2020/12/24 22:10:57.000   40.097023863 -105.147249860  1578.1347   1  20   0.0047   0.0045   0.0094   0.0006   0.0035  -0.0014   0.01   13.3
2020/12/24 22:10:58.000   40.097023876 -105.147249864  1578.1356   1  20   0.0047   0.0045   0.0094   0.0006   0.0035  -0.0014   0.01   13.3
2020/12/24 22:10:59.000   40.097023870 -105.147249878  1578.1339   1  20   0.0047   0.0045   0.0094   0.0006   0.0035  -0.0014   0.01   13.4
2020/12/24 22:11:00.000   40.097023863 -105.147249863  1578.1373   1  20   0.0047   0.0045   0.0094   0.0006   0.0035  -0.0014   0.01   13.5
2020/12/24 22:11:01.000   40.097023868 -105.147249866  1578.1329   1  20   0.0047   0.0045   0.0094   0.0006   0.0035  -0.0014   0.01   13.6
2020/12/24 22:11:02.000   40.097023851 -105.147249857  1578.1343   1  20   0.0047   0.0045   0.0094   0.0006   0.0035  -0.0014   0.01   13.7
2020/12/24 22:11:03.000   40.097023873 -105.147249864  1578.1350   1  20   0.0047   0.0045   0.0094   0.0006   0.0035  -0.0014   0.01   13.8
2020/12/24 22:11:04.000   40.097023870 -105.147249871  1578.1365   1  20   0.0047   0.0045   0.0094   0.0006   0.0035  -0.0014   0.01   13.9
2020/12/24 22:11:05.000   40.097023875 -105.147249875  1578.1328   1  20   0.0047   0.0045   0.0094   0.0006   0.0035  -0.0014   0.01   14.0
2020/12/24 22:11:06.000   40.097023868 -105.147249888  1578.1327   1  20   0.0047   0.0045   0.0094   0.0006   0.0035  -0.0014   0.01   14.1
2020/12/24 22:11:07.000   40.097023868 -105.147249879  1578.1357   1  20   0.0047   0.0045   0.0094   0.0006   0.0034  -0.0014   0.01   14.2
2020/12/24 22:11:08.000   40.097023879 -105.147249882  1578.1340   1  20   0.0047   0.0045   0.0094   0.0006   0.0034  -0.0014   0.01   14.3
2020/12/24 22:11:09.000   40.097023880 -105.147249886  1578.1353   1  20   0.0047   0.0045   0.0094   0.0006   0.0034  -0.0014   0.01   14.3
2020/12/24 22:11:10.000   40.097023873 -105.147249884  1578.1386   1  20   0.0047   0.0045   0.0094   0.0006   0.0034  -0.0013   0.01   14.4
2020/12/24 22:11:11.000   40.097023869 -105.147249877  1578.1340   1  20   0.0047   0.0045   0.0094   0.0006   0.0034  -0.0013   0.01   14.5
2020/12/24 22:11:12.000   40.097023862 -105.147249886  1578.1359   1  20   0.0047   0.0045   0.0094   0.0006   0.0034  -0.0013   0.01   14.7
2020/12/24 22:11:13.000   40.097023856 -105.147249888  1578.1367   1  20   0.0047   0.0045   0.0094   0.0006   0.0034  -0.0013   0.01   14.7
2020/12/24 22:11:14.000   40.097023876 -105.147249892  1578.1347   1  20   0.0047   0.0045   0.0094   0.0006   0.0034  -0.0013   0.01   14.8
2020/12/24 22:11:15.000   40.097023866 -105.147249884  1578.1345   1  20   0.0047   0.0045   0.0094   0.0006   0.0034  -0.0013   0.01   14.9
2020/12/24 22:11:16.000   40.097023906 -105.147249873  1578.1326   1  20   0.0047   0.0045   0.0094   0.0006   0.0034  -0.0013   0.01   15.0
2020/12/24 22:11:17.000   40.097023915 -105.147249881  1578.1310   1  20   0.0047   0.0045   0.0094   0.0006   0.0034  -0.0013   0.01   15.1
2020/12/24 22:11:18.000   40.097023908 -105.147249865  1578.1353   1  20   0.0047   0.0045   0.0094   0.0006   0.0034  -0.0013   0.01   15.2
2020/12/24 22:11:19.000   40.097023907 -105.147249874  1578.1345   1  20   0.0047   0.0045   0.0094   0.0006   0.0034  -0.0013   0.01   15.3
2020/12/24 22:11:20.000   40.097023900 -105.147249873  1578.1351   1  20   0.0047   0.0044   0.0094   0.0006   0.0034  -0.0013   0.01   15.4
2020/12/24 22:11:21.000   40.097023893 -105.147249879  1578.1341   1  20   0.0047   0.0044   0.0094   0.0006   0.0034  -0.0013   0.01   15.5
2020/12/24 22:11:22.000   40.097023895 -105.147249876  1578.1343   1  20   0.0047   0.0044   0.0094   0.0006   0.0034  -0.0013   0.01   15.6
2020/12/24 22:11:23.000   40.097023899 -105.147249881  1578.1356   1  20   0.0047   0.0044   0.0094   0.0006   0.0034  -0.0013   0.01   15.7
2020/12/24 22:11:24.000   40.097023907 -105.147249884  1578.1331   1  20   0.0047   0.0044   0.0094   0.0006   0.0034  -0.0013   0.01   15.8
2020/12/24 22:11:25.000   40.097023895 -105.147249891  1578.1348   1  20   0.0047   0.0044   0.0094   0.0006   0.0034  -0.0013   0.01   15.9
2020/12/24 22:11:26.000   40.097023890 -105.147249848  1578.1357   1  20   0.0047   0.0044   0.0094   0.0006   0.0034  -0.0013   0.01   16.0
2020/12/24 22:11:27.000   40.097023990 -105.147248534  1578.1386   1  20   0.0047   0.0044   0.0094   0.0006   0.0034  -0.0013   0.01   16.1
2020/12/24 22:11:28.000   40.097024946 -105.147236534  1578.1590   1  20   0.0047   0.0044   0.0094   0.0006   0.0034  -0.0013   0.01   16.1
2020/12/24 22:11:29.000   40.097029179 -105.147206539  1578.2302   1  20   0.0047   0.0044   0.0094   0.0006   0.0034  -0.0013   0.01   16.2
2020/12/24 22:11:30.000   40.097036054 -105.147157311  1578.3153   1  19   0.0049   0.0045   0.0096  -0.0010   0.0032   0.0011   0.01   16.6
2020/12/24 22:11:31.000   40.097042035 -105.147091895  1578.4241   1  20   0.0049   0.0045   0.0096  -0.0010   0.0032   0.0011   0.01   16.8
2020/12/24 22:11:32.000   40.097045617 -105.147011768  1578.5319   1  20   0.0048   0.0046   0.0096  -0.0007   0.0031  -0.0003   0.01   18.8
2020/12/24 22:11:33.000   40.097047725 -105.146918095  1578.6532   1  20   0.0047   0.0046   0.0097  -0.0003   0.0030  -0.0009   0.01   20.7
2020/12/24 22:11:34.000   40.097048755 -105.146814179  1578.7559   1  20   0.0047   0.0046   0.0096  -0.0001   0.0031  -0.0010   0.01   20.8
2020/12/24 22:11:35.000   40.097049649 -105.146702193  1578.8567   1  18   0.0052   0.0050   0.0115  -0.0021   0.0047  -0.0039   0.01   26.1
2020/12/24 22:11:36.000   40.097051241 -105.146587904  1578.9823   1  19   0.0052   0.0050   0.0115  -0.0021   0.0047  -0.0039   0.01   27.6
2020/12/24 22:11:37.000   40.097052708 -105.146471140  1579.1460   1  19   0.0054   0.0051   0.0116  -0.0024   0.0045  -0.0035   0.01   28.9
2020/12/24 22:11:38.000   40.097053316 -105.146354950  1579.3100   1  17   0.0054   0.0051   0.0117  -0.0024   0.0045  -0.0036   0.01   29.5
2020/12/24 22:11:39.000   40.097052869 -105.146238202  1579.4608   1  18   0.0054   0.0051   0.0116  -0.0024   0.0045  -0.0035   0.01   30.7
2020/12/24 22:11:40.000   40.097050270 -105.146118860  1579.6411   1  19   0.0052   0.0049   0.0112  -0.0021   0.0045  -0.0035   0.01   30.9
2020/12/24 22:11:41.000   40.097045415 -105.145999138  1579.6809   1  20   0.0053   0.0051   0.0116  -0.0019   0.0045  -0.0040   0.01   29.5
2020/12/24 22:11:42.000   40.097038092 -105.145878089  1579.8141   1  20   0.0055   0.0052   0.0110   0.0001   0.0034  -0.0025   0.01   57.6
2020/12/24 22:11:43.000   40.097027997 -105.145758093  1579.9529   1  19   0.0054   0.0050   0.0110  -0.0009   0.0036  -0.0026   0.01   61.8
2020/12/24 22:11:44.000   40.097014728 -105.145636367  1580.0742   1  19   0.0055   0.0051   0.0110   0.0009   0.0033  -0.0026   0.01   65.6
2020/12/24 22:11:45.000   40.096998409 -105.145513386  1580.2472   1  19   0.0063   0.0053   0.0118  -0.0026   0.0043  -0.0034   0.01   76.2
2020/12/24 22:11:46.000   40.096979887 -105.145386856  1580.5563   1  20   0.0058   0.0056   0.0122  -0.0009   0.0053   0.0015   0.01   91.9
2020/12/24 22:11:47.000   40.096960478 -105.145258108  1580.6862   1  20   0.0057   0.0053   0.0115  -0.0010   0.0047  -0.0009   0.01   93.4
2020/12/24 22:11:48.000   40.096941426 -105.145126642  1580.8410   1  20   0.0053   0.0049   0.0109  -0.0011   0.0044  -0.0008   0.01    9.1
2020/12/24 22:11:49.000   40.096925227 -105.144992955  1580.9797   1  18   0.0060   0.0050   0.0112  -0.0020   0.0041   0.0024   0.01   10.6
2020/12/24 22:11:50.000   40.096915232 -105.144856531  1581.1235   1  18   0.0062   0.0052   0.0118  -0.0007   0.0047   0.0039   0.01   12.1
2020/12/24 22:11:51.000   40.096909916 -105.144716355  1581.2885   1  20   0.0055   0.0049   0.0107  -0.0003   0.0044   0.0016   0.01    3.2
2020/12/24 22:11:52.000   40.096906718 -105.144573153  1581.4807   1  20   0.0051   0.0048   0.0103  -0.0001   0.0042  -0.0003   0.01    5.5
2020/12/24 22:11:53.000   40.096905761 -105.144427683  1581.6730   1  20   0.0052   0.0047   0.0101  -0.0004   0.0041  -0.0009   0.01    6.1
2020/12/24 22:11:54.000   40.096906268 -105.144282191  1581.8867   1  20   0.0050   0.0045   0.0097  -0.0008   0.0036  -0.0015   0.01    6.0
2020/12/24 22:11:55.000   40.096907377 -105.144137508  1582.1122   1  20   0.0047   0.0045   0.0096  -0.0001   0.0036  -0.0016   0.01    3.4
2020/12/24 22:11:56.000   40.096908437 -105.143992686  1582.2689   1  20   0.0047   0.0046   0.0097   0.0004   0.0033  -0.0016   0.01    6.0
2020/12/24 22:11:57.000   40.096909714 -105.143849191  1582.3522   1  18   0.0054   0.0048   0.0109  -0.0019   0.0031   0.0014   0.01    8.9
2020/12/24 22:11:58.000   40.096911351 -105.143708590  1582.4067   1  17   0.0083   0.0060   0.0113  -0.0029  -0.0010   0.0038   0.01   16.7
2020/12/24 22:11:59.000   40.096913411 -105.143570008  1582.4542   1  19   0.0116   0.0082   0.0126   0.0070   0.0017   0.0028   0.01   80.1
2020/12/24 22:12:00.000   40.096915529 -105.143433950  1582.4065   1  19   0.0106   0.0071   0.0149   0.0046   0.0048  -0.0055   0.01   80.2
2020/12/24 22:12:01.000   40.096917421 -105.143301333  1582.3466   1  20   0.0105   0.0066   0.0143   0.0040   0.0036  -0.0060   0.01   80.5
2020/12/24 22:12:02.000   40.096918919 -105.143169027  1582.2858   1  20   0.0079   0.0060   0.0124   0.0037   0.0036  -0.0058   0.01    9.1
2020/12/24 22:12:03.000   40.096920015 -105.143036677  1582.1619   1  19   0.0073   0.0058   0.0120   0.0035   0.0032  -0.0053   0.01   10.7
2020/12/24 22:12:04.000   40.096920624 -105.142905115  1581.9780   1  19   0.0071   0.0054   0.0118   0.0020   0.0010  -0.0042   0.01    9.8
2020/12/24 22:12:05.000   40.096921092 -105.142775688  1581.8137   1  20   0.0067   0.0052   0.0115   0.0019   0.0018  -0.0040   0.01   12.1
2020/12/24 22:12:06.000   40.096921546 -105.142647651  1581.5977   1  20   0.0063   0.0051   0.0110   0.0019   0.0025  -0.0040   0.01   14.3
2020/12/24 22:12:07.000   40.096921681 -105.142519945  1581.3907   1  20   0.0065   0.0050   0.0112   0.0013   0.0024  -0.0031   0.01   15.7
2020/12/24 22:12:08.000   40.096920023 -105.142392272  1581.0884   1  19   0.0076   0.0051   0.0108  -0.0019   0.0022  -0.0021   0.01   13.1
2020/12/24 22:12:09.000   40.096921056 -105.142266948  1581.0240   1  19   0.0071   0.0050   0.0107  -0.0014   0.0027  -0.0028   0.01   13.9
2020/12/24 22:12:10.000   40.096921875 -105.142141885  1580.9015   1  20   0.0067   0.0050   0.0108  -0.0011   0.0031  -0.0031   0.01   14.7
2020/12/24 22:12:11.000   40.096921681 -105.142017426  1580.7569   1  20   0.0053   0.0047   0.0098  -0.0011   0.0034  -0.0013   0.01    4.3
2020/12/24 22:12:12.000   40.096920951 -105.141895590  1580.5965   1  20   0.0051   0.0046   0.0097  -0.0009   0.0034  -0.0012   0.01    4.9
2020/12/24 22:12:13.000   40.096920370 -105.141783264  1580.4099   1  20   0.0054   0.0047   0.0101  -0.0012   0.0037  -0.0019   0.01    5.6
2020/12/24 22:12:14.000   40.096919899 -105.141684554  1580.2711   1  19   0.0057   0.0050   0.0113  -0.0023   0.0048  -0.0039   0.01    6.3
2020/12/24 22:12:15.000   40.096919530 -105.141599052  1580.1307   1  20   0.0056   0.0050   0.0113  -0.0023   0.0048  -0.0039   0.01    7.0
2020/12/24 22:12:16.000   40.096920196 -105.141531322  1580.0300   1  20   0.0052   0.0047   0.0105  -0.0014   0.0043  -0.0031   0.01    3.1
2020/12/24 22:12:17.000   40.096920779 -105.141485984  1579.9632   1  20   0.0051   0.0047   0.0105  -0.0013   0.0042  -0.0030   0.01    3.4
2020/12/24 22:12:18.000   40.096921245 -105.141462463  1579.9289   1  20   0.0051   0.0047   0.0104  -0.0012   0.0041  -0.0028   0.01    3.7
2020/12/24 22:12:19.000   40.096921747 -105.141450017  1579.9039   1  20   0.0050   0.0046   0.0103  -0.0011   0.0040  -0.0027   0.01    4.1
2020/12/24 22:12:20.000   40.096925013 -105.141430010  1579.8594   1  20   0.0050   0.0046   0.0102  -0.0011   0.0040  -0.0027   0.01    4.4
2020/12/24 22:12:21.000   40.096941543 -105.141397312  1579.7533   1  20   0.0049   0.0046   0.0099  -0.0007   0.0038  -0.0023   0.01    4.9
2020/12/24 22:12:22.000   40.096977068 -105.141369135  1579.4740   1  20   0.0049   0.0046   0.0098  -0.0005   0.0037  -0.0021   0.01    5.2
2020/12/24 22:12:23.000   40.097026232 -105.141352696  1579.0655   1  20   0.0048   0.0045   0.0098  -0.0002   0.0036  -0.0019   0.01    5.4
2020/12/24 22:12:24.000   40.097087045 -105.141340255  1578.6362   1  19   0.0048   0.0052   0.0108  -0.0012   0.0050  -0.0025   0.01    5.9
2020/12/24 22:12:25.000   40.097155470 -105.141333005  1578.2147   1  20   0.0048   0.0051   0.0108  -0.0012   0.0050  -0.0024   0.01    6.3
2020/12/24 22:12:26.000   40.097228809 -105.141329911  1577.7776   1  19   0.0048   0.0054   0.0113  -0.0010   0.0055  -0.0022   0.01    6.9
2020/12/24 22:12:27.000   40.097306344 -105.141329337  1577.2224   1  20   0.0047   0.0050   0.0105   0.0003   0.0047  -0.0014   0.01    4.7
2020/12/24 22:12:28.000   40.097387392 -105.141328329  1576.8268   1  20   0.0047   0.0049   0.0103   0.0005   0.0040  -0.0015   0.01    6.4
2020/12/24 22:12:29.000   40.097470693 -105.141329636  1576.4186   1  20   0.0047   0.0049   0.0102   0.0007   0.0042  -0.0013   0.01    7.0
2020/12/24 22:12:30.000   40.097555587 -105.141332089  1576.0541   1  20   0.0047   0.0052   0.0108  -0.0006   0.0049  -0.0017   0.01    4.2
2020/12/24 22:12:31.000   40.097642644 -105.141335034  1575.5089   1  19   0.0048   0.0052   0.0113  -0.0010   0.0051  -0.0026   0.01    8.4
2020/12/24 22:12:32.000   40.097732071 -105.141336866  1574.9922   1  19   0.0053   0.0056   0.0129  -0.0025   0.0061  -0.0046   0.01   13.5
2020/12/24 22:12:33.000   40.097825596 -105.141341269  1573.8356   1  16   0.0055   0.0117   0.0252  -0.0047   0.0161  -0.0073   0.01   13.6
2020/12/24 22:12:34.000   40.097921541 -105.141338391  1573.9498   1  17   0.0059   0.0138   0.0305  -0.0060   0.0196  -0.0093   0.01   14.4
2020/12/24 22:12:35.000   40.098021302 -105.141338528  1573.4276   1  17   0.0055   0.0107   0.0238  -0.0047   0.0148  -0.0074   0.01   15.2
2020/12/24 22:12:36.000   40.098122914 -105.141338804  1572.8935   1  19   0.0059   0.0138   0.0305  -0.0060   0.0196  -0.0093   0.01   16.0
2020/12/24 22:12:37.000   40.098225099 -105.141338305  1572.4413   1  19   0.0054   0.0105   0.0232  -0.0044   0.0145  -0.0069   0.01   16.7
2020/12/24 22:12:38.000   40.098327771 -105.141337753  1571.9475   1  20   0.0052   0.0092   0.0200  -0.0031   0.0123  -0.0052   0.01   17.9
2020/12/24 22:12:39.000   40.098430744 -105.141334867  1571.4663   1  18   0.0052   0.0087   0.0194  -0.0025   0.0115  -0.0038   0.01   18.1
2020/12/24 22:12:40.000   40.098534536 -105.141330878  1570.8444   1  18   0.0058   0.0084   0.0193  -0.0026   0.0106  -0.0057   0.01   29.4
2020/12/24 22:12:41.000   40.098639132 -105.141327484  1570.2483   1  18   0.0058   0.0078   0.0189  -0.0029   0.0095  -0.0039   0.01   30.7
2020/12/24 22:12:42.000   40.098744284 -105.141324373  1569.7794   1  19   0.0057   0.0074   0.0179  -0.0028   0.0090  -0.0037   0.01   32.1
2020/12/24 22:12:43.000   40.098849706 -105.141321664  1569.3603   1  19   0.0059   0.0076   0.0181  -0.0027   0.0087  -0.0042   0.01   33.4
2020/12/24 22:12:44.000   40.098955075 -105.141319202  1568.9633   1  19   0.0056   0.0072   0.0170  -0.0026   0.0083  -0.0039   0.01   34.4
2020/12/24 22:12:45.000   40.099059881 -105.141316375  1568.5818   1  20   0.0054   0.0069   0.0166  -0.0024   0.0082  -0.0037   0.01   35.1
2020/12/24 22:12:46.000   40.099163656 -105.141313669  1568.2030   1  20   0.0052   0.0067   0.0159  -0.0022   0.0079  -0.0038   0.01   36.4
2020/12/24 22:12:47.000   40.099264955 -105.141311181  1567.7913   1  20   0.0051   0.0065   0.0143  -0.0021   0.0072  -0.0040   0.01    8.2
2020/12/24 22:12:48.000   40.099364825 -105.141309823  1567.3705   1  19   0.0049   0.0049   0.0102   0.0007   0.0034  -0.0017   0.01    4.6
2020/12/24 22:12:49.000   40.099465008 -105.141309735  1566.9321   1  20   0.0047   0.0052   0.0107  -0.0009   0.0046  -0.0017   0.01    3.1
2020/12/24 22:12:50.000   40.099565642 -105.141311570  1566.5040   1  19   0.0047   0.0049   0.0102  -0.0005   0.0040  -0.0014   0.01    5.5
2020/12/24 22:12:51.000   40.099666024 -105.141315196  1566.1322   1  19   0.0051   0.0056   0.0106   0.0020   0.0044  -0.0019   0.01    4.9
2020/12/24 22:12:52.000   40.099766535 -105.141319992  1565.7148   1  19   0.0063   0.0064   0.0109   0.0034   0.0006  -0.0034   0.01    5.7
2020/12/24 22:12:53.000   40.099866739 -105.141324520  1565.3267   1  19   0.0058   0.0057   0.0110   0.0018   0.0009  -0.0002   0.01    6.5
2020/12/24 22:12:54.000   40.099965600 -105.141327979  1564.9045   1  20   0.0055   0.0054   0.0105   0.0015   0.0022  -0.0007   0.01    7.2
2020/12/24 22:12:55.000   40.100062507 -105.141331579  1564.5084   1  20   0.0057   0.0059   0.0118   0.0016   0.0029  -0.0023   0.01    7.8
2020/12/24 22:12:56.000   40.100157269 -105.141334610  1564.1844   1  19   0.0053   0.0059   0.0117   0.0015   0.0043  -0.0017   0.01   10.8
2020/12/24 22:12:57.000   40.100251182 -105.141336618  1563.8512   1  20   0.0051   0.0054   0.0110   0.0015   0.0038  -0.0014   0.01   11.5
2020/12/24 22:12:58.000   40.100344909 -105.141337731  1563.4563   1  20   0.0049   0.0049   0.0104   0.0005   0.0037  -0.0009   0.01   12.0
2020/12/24 22:12:59.000   40.100439340 -105.141339743  1562.9851   1  20   0.0047   0.0048   0.0099  -0.0002   0.0038  -0.0010   0.01   10.5
2020/12/24 22:13:00.000   40.100534584 -105.141344916  1562.5322   1  20   0.0047   0.0047   0.0098   0.0000   0.0037  -0.0010   0.01   12.4
2020/12/24 22:13:01.000   40.100630432 -105.141352797  1562.1181   1  20   0.0047   0.0053   0.0109  -0.0007   0.0051  -0.0014   0.01   14.4
2020/12/24 22:13:02.000   40.100726666 -105.141360517  1561.7333   1  20   0.0047   0.0049   0.0102   0.0003   0.0044  -0.0013   0.01   14.1
2020/12/24 22:13:03.000   40.100823134 -105.141368553  1561.3476   1  20   0.0046   0.0047   0.0099   0.0004   0.0041  -0.0013   0.01    4.6
2020/12/24 22:13:04.000   40.100920188 -105.141376793  1560.9053   1  20   0.0046   0.0046   0.0098   0.0005   0.0039  -0.0012   0.01    5.3
2020/12/24 22:13:05.000   40.101017315 -105.141385426  1560.5379   1  20   0.0046   0.0045   0.0095   0.0007   0.0035  -0.0010   0.01    4.2
2020/12/24 22:13:06.000   40.101114629 -105.141392867  1560.1787   1  20   0.0046   0.0044   0.0095   0.0007   0.0035  -0.0010   0.01    5.0
2020/12/24 22:13:07.000   40.101211848 -105.141397720  1559.7582   1  20   0.0046   0.0044   0.0094   0.0006   0.0034  -0.0011   0.01    5.2
2020/12/24 22:13:08.000   40.101305158 -105.141399536  1559.3877   1  20   0.0046   0.0044   0.0094   0.0006   0.0034  -0.0011   0.01    5.6
2020/12/24 22:13:09.000   40.101388993 -105.141398935  1559.0102   1  19   0.0046   0.0045   0.0096   0.0007   0.0032  -0.0012   0.01    6.2
2020/12/24 22:13:10.000   40.101462481 -105.141396588  1558.6742   1  20   0.0047   0.0051   0.0105  -0.0008   0.0045  -0.0018   0.01    6.9
2020/12/24 22:13:11.000   40.101518992 -105.141393965  1558.3625   1  20   0.0046   0.0048   0.0101  -0.0002   0.0039  -0.0015   0.01    7.4
2020/12/24 22:13:12.000   40.101559530 -105.141392454  1558.1450   1  20   0.0046   0.0047   0.0098   0.0002   0.0038  -0.0014   0.01    7.9
2020/12/24 22:13:13.000   40.101583224 -105.141392368  1557.9834   1  20   0.0047   0.0051   0.0105  -0.0008   0.0045  -0.0018   0.01    8.4
2020/12/24 22:13:14.000   40.101593754 -105.141392531  1557.9109   1  20   0.0046   0.0048   0.0101  -0.0002   0.0039  -0.0015   0.01    8.9
2020/12/24 22:13:15.000   40.101600295 -105.141392572  1557.8693   1  20   0.0046   0.0047   0.0098   0.0002   0.0038  -0.0014   0.01    9.4
2020/12/24 22:13:16.000   40.101600783 -105.141392584  1557.8675   1  20   0.0046   0.0046   0.0097   0.0003   0.0037  -0.0013   0.01    9.8
2020/12/24 22:13:17.000   40.101600782 -105.141392596  1557.8651   1  20   0.0046   0.0044   0.0095   0.0006   0.0034  -0.0011   0.01    4.1
2020/12/24 22:13:18.000   40.101600774 -105.141392597  1557.8633   1  20   0.0046   0.0044   0.0094   0.0006   0.0034  -0.0011   0.01    4.8
2020/12/24 22:13:19.000   40.101601966 -105.141392628  1557.8551   1  20   0.0046   0.0044   0.0094   0.0006   0.0034  -0.0011   0.01    5.4
2020/12/24 22:13:20.000   40.101613094 -105.141393717  1557.7761   1  20   0.0046   0.0044   0.0094   0.0006   0.0034  -0.0011   0.01    6.1
2020/12/24 22:13:21.000   40.101640587 -105.141404177  1557.7008   1  20   0.0046   0.0044   0.0094   0.0006   0.0034  -0.0011   0.01    6.7
2020/12/24 22:13:22.000   40.101669471 -105.141440715  1557.8767   1  20   0.0046   0.0044   0.0094   0.0006   0.0034  -0.0011   0.01    3.5
2020/12/24 22:13:23.000   40.101685384 -105.141509867  1558.1225   1  20   0.0046   0.0044   0.0094   0.0006   0.0034  -0.0011   0.01    3.8
2020/12/24 22:13:24.000   40.101691840 -105.141600304  1558.4183   1  20   0.0046   0.0044   0.0094   0.0006   0.0034  -0.0010   0.01    4.1
2020/12/24 22:13:25.000   40.101694934 -105.141704710  1558.7491   1  20   0.0046   0.0044   0.0094   0.0006   0.0034  -0.0010   0.01    4.4
2020/12/24 22:13:26.000   40.101695657 -105.141822058  1559.1247   1  20   0.0046   0.0044   0.0094   0.0006   0.0034  -0.0010   0.01    4.6
2020/12/24 22:13:27.000   40.101696149 -105.141950766  1559.5555   1  20   0.0046   0.0044   0.0094   0.0006   0.0034  -0.0010   0.01    4.9
2020/12/24 22:13:28.000   40.101696229 -105.142088142  1560.0318   1  20   0.0046   0.0044   0.0094   0.0006   0.0034  -0.0010   0.01    5.1
2020/12/24 22:13:29.000   40.101696764 -105.142231791  1560.5056   1  20   0.0046   0.0044   0.0094   0.0006   0.0034  -0.0010   0.01    5.3
2020/12/24 22:13:30.000   40.101698551 -105.142381492  1561.0288   1  20   0.0046   0.0044   0.0094   0.0006   0.0034  -0.0010   0.01    5.6
2020/12/24 22:13:31.000   40.101701223 -105.142535663  1561.6226   1  20   0.0046   0.0044   0.0094   0.0006   0.0034  -0.0010   0.01    5.8
2020/12/24 22:13:32.000   40.101704581 -105.142693758  1562.1830   1  20   0.0046   0.0044   0.0094   0.0006   0.0034  -0.0010   0.01    6.1
2020/12/24 22:13:33.000   40.101708630 -105.142854412  1562.6565   1  20   0.0046   0.0044   0.0094   0.0006   0.0034  -0.0010   0.01    6.2
2020/12/24 22:13:34.000   40.101712053 -105.143016589  1563.0826   1  20   0.0046   0.0044   0.0094   0.0006   0.0034  -0.0010   0.01    6.4
2020/12/24 22:13:35.000   40.101715091 -105.143179735  1563.4531   1  20   0.0046   0.0044   0.0094   0.0006   0.0034  -0.0010   0.01    6.7
2020/12/24 22:13:36.000   40.101717886 -105.143345269  1563.7868   1  20   0.0046   0.0044   0.0094   0.0006   0.0034  -0.0010   0.01    6.9
2020/12/24 22:13:37.000   40.101718867 -105.143513269  1564.0980   1  20   0.0046   0.0044   0.0094   0.0006   0.0034  -0.0010   0.01    7.1
2020/12/24 22:13:38.000   40.101718029 -105.143680374  1564.3279   1  20   0.0046   0.0044   0.0094   0.0006   0.0034  -0.0010   0.01    7.3
2020/12/24 22:13:39.000   40.101716973 -105.143848859  1564.5024   1  20   0.0046   0.0044   0.0094   0.0006   0.0034  -0.0010   0.01    7.4
2020/12/24 22:13:40.000   40.101715632 -105.144017798  1564.6068   1  20   0.0046   0.0044   0.0094   0.0006   0.0034  -0.0010   0.01    7.6
2020/12/24 22:13:41.000   40.101714123 -105.144186261  1564.6823   1  20   0.0046   0.0044   0.0094   0.0006   0.0034  -0.0010   0.01    7.8
2020/12/24 22:13:42.000   40.101712380 -105.144354582  1564.6943   1  20   0.0046   0.0044   0.0094   0.0006   0.0034  -0.0010   0.01    7.9
2020/12/24 22:13:43.000   40.101710405 -105.144522414  1564.6526   1  20   0.0046   0.0044   0.0094   0.0006   0.0034  -0.0010   0.01    8.1
2020/12/24 22:13:44.000   40.101708533 -105.144690084  1564.6126   1  20   0.0046   0.0044   0.0094   0.0006   0.0034  -0.0010   0.01    8.3
2020/12/24 22:13:45.000   40.101706900 -105.144857754  1564.5429   1  20   0.0046   0.0044   0.0094   0.0006   0.0034  -0.0010   0.01    8.4
2020/12/24 22:13:46.000   40.101705504 -105.145025839  1564.4021   1  20   0.0046   0.0044   0.0094   0.0006   0.0034  -0.0010   0.01    8.5
2020/12/24 22:13:47.000   40.101704315 -105.145194567  1564.2173   1  20   0.0052   0.0045   0.0099  -0.0014   0.0029   0.0025   0.01    9.5
2020/12/24 22:13:48.000   40.101703197 -105.145363186  1564.2134   1  20   0.0049   0.0045   0.0096  -0.0009   0.0032   0.0016   0.01    9.6
2020/12/24 22:13:49.000   40.101701552 -105.145529817  1564.0520   1  20   0.0050   0.0045   0.0097  -0.0009   0.0032   0.0019   0.01    9.7
2020/12/24 22:13:50.000   40.101699532 -105.145695965  1563.8239   1  20   0.0048   0.0044   0.0096  -0.0006   0.0033   0.0013   0.01    9.8
2020/12/24 22:13:51.000   40.101697704 -105.145863389  1563.5618   1  20   0.0048   0.0045   0.0098  -0.0008   0.0036  -0.0007   0.01   10.0
2020/12/24 22:13:52.000   40.101695921 -105.146031176  1563.2747   1  20   0.0049   0.0045   0.0100  -0.0011   0.0038  -0.0017   0.01   10.2
2020/12/24 22:13:53.000   40.101694533 -105.146197901  1562.9626   1  20   0.0048   0.0045   0.0099  -0.0009   0.0037  -0.0015   0.01   10.3
2020/12/24 22:13:54.000   40.101692927 -105.146363365  1562.5820   1  20   0.0048   0.0045   0.0100  -0.0010   0.0038  -0.0018   0.01   10.4
2020/12/24 22:13:55.000   40.101689509 -105.146529327  1562.1914   1  19   0.0048   0.0045   0.0098  -0.0008   0.0037  -0.0018   0.01    7.1
2020/12/24 22:13:56.000   40.101685372 -105.146695949  1561.8253   1  20   0.0048   0.0045   0.0100  -0.0009   0.0038  -0.0020   0.01    8.2
2020/12/24 22:13:57.000   40.101680320 -105.146862345  1561.4167   1  19   0.0052   0.0049   0.0111  -0.0021   0.0049  -0.0037   0.01   10.6
2020/12/24 22:13:58.000   40.101674011 -105.147028566  1561.0498   1  20   0.0050   0.0047   0.0106  -0.0016   0.0044  -0.0030   0.01   11.6
2020/12/24 22:13:59.000   40.101667046 -105.147195127  1560.5391   1  18   0.0052   0.0049   0.0111  -0.0021   0.0049  -0.0037   0.01   11.9
2020/12/24 22:14:00.000   40.101660524 -105.147362561  1560.0442   1  20   0.0052   0.0049   0.0111  -0.0021   0.0049  -0.0037   0.01   12.1
2020/12/24 22:14:01.000   40.101655512 -105.147530521  1559.5952   1  20   0.0050   0.0047   0.0106  -0.0016   0.0044  -0.0030   0.01   12.3
2020/12/24 22:14:02.000   40.101652112 -105.147698924  1559.1440   1  20   0.0048   0.0046   0.0101  -0.0012   0.0040  -0.0024   0.01   12.5
2020/12/24 22:14:03.000   40.101649662 -105.147867019  1558.7077   1  20   0.0049   0.0046   0.0103  -0.0013   0.0041  -0.0026   0.01   12.7
2020/12/24 22:14:04.000   40.101646789 -105.148026759  1558.2613   1  20   0.0048   0.0046   0.0102  -0.0012   0.0041  -0.0025   0.01   12.9
2020/12/24 22:14:05.000   40.101644247 -105.148173085  1557.8752   1  20   0.0048   0.0045   0.0099  -0.0009   0.0038  -0.0020   0.01   13.1
2020/12/24 22:14:06.000   40.101642429 -105.148304040  1557.5419   1  20   0.0047   0.0045   0.0098  -0.0007   0.0037  -0.0018   0.01   13.3
2020/12/24 22:14:07.000   40.101641372 -105.148422524  1557.2259   1  20   0.0047   0.0045   0.0097  -0.0006   0.0037  -0.0017   0.01   13.5
2020/12/24 22:14:08.000   40.101640527 -105.148527049  1556.9319   1  20   0.0047   0.0045   0.0097  -0.0006   0.0036  -0.0016   0.01   13.7
2020/12/24 22:14:09.000   40.101639427 -105.148617722  1556.6766   1  20   0.0048   0.0045   0.0101  -0.0010   0.0039  -0.0023   0.01   13.9
2020/12/24 22:14:10.000   40.101638411 -105.148697221  1556.4315   1  20   0.0048   0.0045   0.0101  -0.0010   0.0039  -0.0023   0.01   14.1
2020/12/24 22:14:11.000   40.101637370 -105.148765519  1556.2214   1  20   0.0047   0.0045   0.0098  -0.0007   0.0037  -0.0018   0.01   14.3
2020/12/24 22:14:12.000   40.101636409 -105.148823077  1556.0444   1  20   0.0047   0.0045   0.0097  -0.0006   0.0037  -0.0016   0.01   14.5
2020/12/24 22:14:13.000   40.101635473 -105.148870892  1555.9221   1  20   0.0047   0.0045   0.0096  -0.0005   0.0036  -0.0015   0.01   14.7
2020/12/24 22:14:14.000   40.101634684 -105.148910139  1555.8260   1  20   0.0047   0.0044   0.0096  -0.0004   0.0036  -0.0014   0.01   14.9
2020/12/24 22:14:15.000   40.101634056 -105.148937446  1555.7493   1  20   0.0047   0.0044   0.0096  -0.0002   0.0036  -0.0014   0.01    7.6
2020/12/24 22:14:16.000   40.101633774 -105.148950793  1555.7157   1  20   0.0047   0.0044   0.0096   0.0001   0.0036  -0.0014   0.01    7.8
2020/12/24 22:14:17.000   40.101633666 -105.148955436  1555.6966   1  20   0.0047   0.0044   0.0095   0.0002   0.0036  -0.0013   0.01    8.0
2020/12/24 22:14:18.000   40.101633671 -105.148955502  1555.6984   1  20   0.0047   0.0044   0.0095   0.0002   0.0035  -0.0013   0.01    8.3
2020/12/24 22:14:19.000   40.101633658 -105.148955502  1555.6990   1  20   0.0047   0.0044   0.0095   0.0003   0.0035  -0.0013   0.01    8.5
2020/12/24 22:14:20.000   40.101633665 -105.148955493  1555.6980   1  20   0.0047   0.0044   0.0095   0.0003   0.0035  -0.0013   0.01    8.7
2020/12/24 22:14:21.000   40.101633560 -105.148959003  1555.6788   1  20   0.0047   0.0044   0.0095   0.0003   0.0035  -0.0012   0.01    9.0
2020/12/24 22:14:22.000   40.101633096 -105.148980664  1555.6107   1  20   0.0046   0.0044   0.0095   0.0004   0.0035  -0.0012   0.01    9.2
2020/12/24 22:14:23.000   40.101632164 -105.149032760  1555.4668   1  20   0.0046   0.0044   0.0095   0.0004   0.0035  -0.0012   0.01    9.3
2020/12/24 22:14:24.000   40.101630942 -105.149107253  1555.2076   1  19   0.0051   0.0049   0.0111  -0.0020   0.0049  -0.0037   0.01    9.5
2020/12/24 22:14:25.000   40.101629047 -105.149201161  1554.8873   1  20   0.0051   0.0049   0.0111  -0.0020   0.0049  -0.0037   0.01    9.7
2020/12/24 22:14:26.000   40.101626623 -105.149312946  1554.5805   1  19   0.0050   0.0048   0.0109  -0.0019   0.0047  -0.0034   0.01    9.9
2020/12/24 22:14:27.000   40.101624228 -105.149438581  1554.0976   1  20   0.0051   0.0049   0.0111  -0.0020   0.0049  -0.0037   0.01   10.0
2020/12/24 22:14:28.000   40.101623804 -105.149577686  1553.3539   1  20   0.0049   0.0047   0.0105  -0.0015   0.0044  -0.0030   0.01   10.1
2020/12/24 22:14:29.000   40.101622556 -105.149723235  1552.9642   1  20   0.0049   0.0046   0.0103  -0.0013   0.0042  -0.0027   0.01   10.3
2020/12/24 22:14:30.000   40.101621732 -105.149874654  1552.3716   1  20   0.0054   0.0047   0.0106  -0.0021   0.0037   0.0005   0.01   17.2
2020/12/24 22:14:31.000   40.101620886 -105.150035124  1551.6592   1  20   0.0050   0.0046   0.0102  -0.0013   0.0034   0.0007   0.01    3.8
2020/12/24 22:14:32.000   40.101620005 -105.150201732  1550.9965   2  20   0.0054   0.0050   0.0112  -0.0017   0.0039  -0.0013   0.01    2.2
2020/12/24 22:14:33.000   40.101618647 -105.150372199  1550.3707   2  19   0.0054   0.0050   0.0111  -0.0017   0.0038  -0.0013   0.01    1.4
2020/12/24 22:14:34.000   40.101617768 -105.150546111  1549.7561   2  20   0.0054   0.0051   0.0112  -0.0016   0.0036  -0.0015   0.01    1.9
2020/12/24 22:14:35.000   40.101616791 -105.150722996  1549.2460   1  20   0.0047   0.0045   0.0099  -0.0003   0.0034  -0.0015   0.01    3.6
2020/12/24 22:14:36.000   40.101615779 -105.150902975  1548.6742   1  20   0.0047   0.0045   0.0097   0.0001   0.0034  -0.0013   0.01    3.7
2020/12/24 22:14:37.000   40.101614965 -105.151085430  1548.1051   1  20   0.0049   0.0045   0.0098  -0.0006   0.0033   0.0011   0.01    4.4
2020/12/24 22:14:38.000   40.101614232 -105.151269871  1547.5203   1  20   0.0048   0.0044   0.0097  -0.0003   0.0034  -0.0002   0.01    4.8
2020/12/24 22:14:39.000   40.101614023 -105.151456545  1546.9232   1  20   0.0046   0.0044   0.0095   0.0005   0.0034  -0.0012   0.01    3.2
2020/12/24 22:14:40.000   40.101614084 -105.151645271  1546.4527   1  20   0.0046   0.0044   0.0095   0.0005   0.0034  -0.0011   0.01    3.1
2020/12/24 22:14:41.000   40.101614232 -105.151835909  1546.0460   2  20   0.0050   0.0048   0.0104  -0.0003   0.0037  -0.0010   0.01    2.6
2020/12/24 22:14:42.000   40.101614314 -105.152028747  1545.6906   2  20   0.0050   0.0048   0.0103   0.0001   0.0037  -0.0010   0.01    2.0
2020/12/24 22:14:43.000   40.101614286 -105.152222564  1545.3465   2  20   0.0050   0.0048   0.0103   0.0003   0.0037  -0.0010   0.01    1.6
2020/12/24 22:14:44.000   40.101615217 -105.152414993  1545.0401   2  20   0.0050   0.0048   0.0103   0.0003   0.0037  -0.0010   0.01    1.2
2020/12/24 22:14:45.000   40.101616641 -105.152606436  1544.7701   2  20   0.0050   0.0048   0.0103   0.0004   0.0037  -0.0010   0.01    1.1
2020/12/24 22:14:46.000   40.101617379 -105.152796867  1544.4794   2  20   0.0049   0.0048   0.0103   0.0004   0.0037  -0.0011   0.01    1.1
2020/12/24 22:14:47.000   40.101617476 -105.152985715  1544.1716   2  20   0.0049   0.0048   0.0103   0.0005   0.0037  -0.0011   0.01    1.2
2020/12/24 22:14:48.000   40.101617161 -105.153172903  1543.9126   2  20   0.0049   0.0048   0.0103   0.0005   0.0037  -0.0011   0.01    1.4
2020/12/24 22:14:49.000   40.101616551 -105.153359451  1543.6799   2  20   0.0049   0.0048   0.0102   0.0005   0.0037  -0.0011   0.01    2.0
2020/12/24 22:14:50.000   40.101616469 -105.153545548  1543.4397   2  20   0.0049   0.0048   0.0102   0.0005   0.0037  -0.0010   0.01    1.9
2020/12/24 22:14:51.000   40.101617060 -105.153731289  1543.1871   2  19   0.0049   0.0053   0.0112  -0.0010   0.0050  -0.0018   0.01    2.5
2020/12/24 22:14:52.000   40.101617921 -105.153914752  1543.1086   2  18   0.0054   0.0063   0.0126  -0.0018   0.0064  -0.0037   0.01    1.6
2020/12/24 22:14:53.000   40.101619030 -105.154093911  1543.1015   2  19   0.0072   0.0067   0.0163  -0.0029   0.0077  -0.0071   0.01    1.7
2020/12/24 22:14:54.000   40.101620461 -105.154259759  1542.9391   2  19   0.0085   0.0068   0.0149   0.0038   0.0044  -0.0076   0.01    2.2
2020/12/24 22:14:55.000   40.101620283 -105.154404711  1543.0566   1  20   0.0050   0.0051   0.0110   0.0013   0.0039  -0.0019   0.01    4.0
2020/12/24 22:14:56.000   40.101620727 -105.154522823  1543.0237   1  19   0.0056   0.0052   0.0106   0.0011   0.0036   0.0010   0.01    4.3
