%  GPST                  latitude(deg) longitude(deg)  height(m)   Q  ns   sdn(m)   sde(m)   sdu(m)  sdne(m)  sdeu(m)  sdun(m) age(s)  ratio
2020/12/24 22:07:60.000   40.097017730 -105.147249025  1578.2184   2  19   1.2962    1.3039   2.7386  -0.1453   0.9514  -0.6157   0.01    0.0
2020/12/24 22:08:01.005   40.097017409 -105.147248361  1578.3441   2  19   0.9324    0.9052   1.8986   0.1703   0.5448  -0.2865   0.00    0.0
2020/12/24 22:08:02.005   40.097017370 -105.147248503  1578.3122   2  19   0.7767    0.7577   1.5869   0.1315   0.4771  -0.2572   0.00    0.0
2020/12/24 22:08:03.005   40.097017472 -105.147248534  1578.3037   2  19   0.6791    0.6647   1.3900   0.1088   0.4278  -0.2344   0.00    0.0
2020/12/24 22:08:04.005   40.097017431 -105.147248586  1578.2589   2  19   0.6104    0.5991   1.2508   0.0932   0.3903  -0.2170   0.00    0.0
2020/12/24 22:08:05.005   40.097017509 -105.147248522  1578.2368   2  19   0.5585    0.5497   1.1452   0.0814   0.3607  -0.2035   0.00    0.0
2020/12/24 22:08:06.005   40.097017344 -105.147248544  1578.1966   2  19   0.5174    0.5107   1.0614   0.0718   0.3366  -0.1928   0.00    0.0
2020/12/24 22:08:07.005   40.097017133 -105.147248678  1578.1738   2  19   0.4838    0.4789   0.9925   0.0636   0.3163  -0.1841   0.00    0.0
2020/12/24 22:08:08.005   40.097016951 -105.147248911  1578.1623   2  19   0.4555    0.4524   0.9344   0.0562   0.2990  -0.1770   0.01    0.0
2020/12/24 22:08:09.005   40.097016904 -105.147249032  1578.1762   2  19   0.4312    0.4297   0.8845   0.0494   0.2839  -0.1710   0.01    0.0
2020/12/24 22:08:10.005   40.097016840 -105.147249191  1578.1503   2  19   0.4101    0.4100   0.8408   0.0427   0.2706  -0.1660   0.01    0.0
2020/12/24 22:08:11.005   40.097016895 -105.147249201  1578.1369   2  19   0.3913    0.3928   0.8021   0.0360   0.2587  -0.1617   0.01    0.0
2020/12/24 22:08:12.005   40.097016791 -105.147249249  1578.1370   2  19   0.3746    0.3775   0.7674   0.0290   0.2480  -0.1580   0.01    0.0
2020/12/24 22:08:13.005   40.097016759 -105.147249149  1578.1731   2  19   0.3594    0.3638   0.7361   0.0208   0.2382  -0.1547   0.01    0.0
2020/12/24 22:08:14.005   40.097016766 -105.147249107  1578.1858   2  19   0.3456    0.3514   0.7074   0.0084   0.2293  -0.1518   0.01    0.0
2020/12/24 22:08:15.005   40.097016858 -105.147249085  1578.1994   2  19   0.3330    0.3402   0.6811  -0.0160   0.2211  -0.1492   0.01    0.0
2020/12/24 22:08:16.005   40.097016999 -105.147248936  1578.2215   2  21   0.3213    0.3286   0.6557  -0.0249   0.2161  -0.1466   0.00    0.0
2020/12/24 22:08:17.005   40.097017030 -105.147248922  1578.2439   2  21   0.3105    0.3188   0.6327  -0.0302   0.2099  -0.1443   0.00    0.0
2020/12/24 22:08:18.005   40.097017078 -105.147248987  1578.2582   2  21   0.3004    0.3097   0.6112  -0.0343   0.2041  -0.1423   0.00    0.0
2020/12/24 22:08:19.005   40.097017213 -105.147249009  1578.2944   2  21   0.2910    0.3014   0.5912  -0.0376   0.1985  -0.1403   0.00    0.0
2020/12/24 22:08:20.005   40.097017224 -105.147249082  1578.3069   2  21   0.2822    0.2936   0.5724  -0.0404   0.1931  -0.1385   0.00    0.0
2020/12/24 22:08:21.005   40.097017337 -105.147249159  1578.3421   2  21   0.2738    0.2864   0.5548  -0.0427   0.1881  -0.1368   0.00    0.0
2020/12/24 22:08:22.005   40.097017388 -105.147249330  1578.3435   2  21   0.2660    0.2796   0.5381  -0.0448   0.1832  -0.1352   0.00    0.0
2020/12/24 22:08:23.005   40.097017549 -105.147249471  1578.3466   2  21   0.2585    0.2733   0.5223  -0.0465   0.1785  -0.1336   0.00    0.0
2020/12/24 22:08:24.005   40.097017720 -105.147249559  1578.3552   2  21   0.2514    0.2673   0.5074  -0.0481   0.1741  -0.1321   0.00    0.0
2020/12/24 22:08:25.005   40.097017816 -105.147249637  1578.3557   2  21   0.2447    0.2617   0.4931  -0.0495   0.1698  -0.1306   0.00    0.0
2020/12/24 22:08:26.005   40.097017939 -105.147249726  1578.3467   2  21   0.2383    0.2564   0.4796  -0.0507   0.1658  -0.1291   0.00    0.0
2020/12/24 22:08:27.005   40.097018081 -105.147249813  1578.3452   2  21   0.2321    0.2513   0.4667  -0.0517   0.1618  -0.1277   0.00    0.0
2020/12/24 22:08:28.005   40.097018255 -105.147249862  1578.3333   2  21   0.2263    0.2465   0.4544  -0.0527   0.1581  -0.1263   0.00    0.0
2020/12/24 22:08:29.005   40.097018421 -105.147249920  1578.3453   2  21   0.2207    0.2420   0.4426  -0.0535   0.1545  -0.1249   0.00    0.0
2020/12/24 22:08:30.005   40.097018513 -105.147250033  1578.3341   2  21   0.2153    0.2377   0.4312  -0.0542   0.1510  -0.1235   0.00    1.2
2020/12/24 22:08:31.005   40.097018612 -105.147250103  1578.3221   2  21   0.2102    0.2335   0.4204  -0.0549   0.1477  -0.1221   0.00    1.2
2020/12/24 22:08:32.005   40.097018708 -105.147250168  1578.3144   2  21   0.2052    0.2296   0.4100  -0.0555   0.1445  -0.1208   0.01    1.2
2020/12/24 22:08:33.005   40.097018819 -105.147250261  1578.2949   2  21   0.2005    0.2258   0.4000  -0.0560   0.1414  -0.1194   0.01    1.1
2020/12/24 22:08:34.005   40.097018935 -105.147250260  1578.2932   2  21   0.1959    0.2221   0.3904  -0.0564   0.1384  -0.1180   0.01    1.0
2020/12/24 22:08:35.005   40.097018998 -105.147250278  1578.2980   2  21   0.1915    0.2187   0.3811  -0.0568   0.1356  -0.1167   0.01    1.2
2020/12/24 22:08:36.005   40.097019123 -105.147250277  1578.3041   2  21   0.1872    0.2153   0.3722  -0.0571   0.1328  -0.1153   0.01    1.1
2020/12/24 22:08:37.005   40.097019280 -105.147250291  1578.2945   2  21   0.1831    0.2121   0.3636  -0.0574   0.1302  -0.1140   0.01    1.2
2020/12/24 22:08:38.005   40.097019377 -105.147250263  1578.2881   2  21   0.1792    0.2090   0.3553  -0.0577   0.1276  -0.1126   0.01    1.2
2020/12/24 22:08:39.005   40.097019442 -105.147250235  1578.2867   2  21   0.1753    0.2060   0.3473  -0.0579   0.1251  -0.1113   0.01    1.2
2020/12/24 22:08:40.005   40.097019492 -105.147250225  1578.2819   2  21   0.1716    0.2031   0.3396  -0.0580   0.1227  -0.1100   0.01    1.1
2020/12/24 22:08:41.005   40.097019541 -105.147250200  1578.2727   2  21   0.1681    0.2003   0.3322  -0.0581   0.1204  -0.1087   0.01    1.2
2020/12/24 22:08:42.005   40.097019595 -105.147250176  1578.2714   2  21   0.1646    0.1976   0.3249  -0.0582   0.1182  -0.1074   0.01    1.3
2020/12/24 22:08:43.005   40.097019635 -105.147250126  1578.2764   2  21   0.1613    0.1950   0.3180  -0.0583   0.1161  -0.1061   0.01    1.1
2020/12/24 22:08:44.005   40.097019714 -105.147250166  1578.2689   2  21   0.1580    0.1925   0.3112  -0.0583   0.1140  -0.1048   0.01    1.0
2020/12/24 22:08:45.005   40.097019721 -105.147250148  1578.2697   2  21   0.1549    0.1900   0.3047  -0.0583   0.1120  -0.1035   0.01    1.7
2020/12/24 22:08:46.005   40.097019810 -105.147250158  1578.2747   2  21   0.1519    0.1877   0.2984  -0.0583   0.1101  -0.1022   0.01    1.1
2020/12/24 22:08:47.005   40.097019820 -105.147250193  1578.2676   2  21   0.1489    0.1854   0.2923  -0.0583   0.1082  -0.1009   0.01    1.6
2020/12/24 22:08:48.005   40.097019822 -105.147250177  1578.2710   2  21   0.1461    0.1831   0.2863  -0.0582   0.1064  -0.0997   0.01    1.3
2020/12/24 22:08:49.005   40.097019930 -105.147250174  1578.2793   2  21   0.1433    0.1809   0.2806  -0.0582   0.1046  -0.0984   0.01    1.5
2020/12/24 22:08:50.005   40.097019948 -105.147250200  1578.2808   2  21   0.1406    0.1788   0.2750  -0.0581   0.1029  -0.0972   0.01    1.2
2020/12/24 22:08:51.005   40.097019947 -105.147250220  1578.2873   2  21   0.1380    0.1768   0.2696  -0.0580   0.1013  -0.0960   0.01    1.4
2020/12/24 22:08:52.005   40.097023917 -105.147249814  1578.0980   1  21   0.0047    0.0045   0.0095   0.0006   0.0035  -0.0016   0.01    3.2
2020/12/24 22:08:53.005   40.097023909 -105.147249812  1578.0969   1  21   0.0047    0.0045   0.0095   0.0006   0.0035  -0.0016   0.01    3.2
2020/12/24 22:08:54.005   40.097023914 -105.147249815  1578.0987   1  21   0.0047    0.0045   0.0095   0.0006   0.0035  -0.0016   0.01    3.1
2020/12/24 22:08:55.005   40.097023913 -105.147249796  1578.0997   1  21   0.0047    0.0045   0.0095   0.0006   0.0035  -0.0016   0.01    3.1
2020/12/24 22:08:56.005   40.097023913 -105.147249803  1578.0987   1  21   0.0047    0.0045   0.0095   0.0006   0.0035  -0.0016   0.01    3.1
2020/12/24 22:08:57.005   40.097023913 -105.147249808  1578.0978   1  21   0.0047    0.0045   0.0095   0.0006   0.0035  -0.0016   0.01    3.1
2020/12/24 22:08:58.005   40.097023916 -105.147249817  1578.1000   1  21   0.0047    0.0045   0.0095   0.0006   0.0035  -0.0016   0.01    3.0
2020/12/24 22:08:59.005   40.097023904 -105.147249814  1578.1012   1  21   0.0047    0.0045   0.0095   0.0006   0.0035  -0.0016   0.01    3.0
2020/12/24 22:09:00.005   40.097020384 -105.147250540  1578.3364   2  21   0.1176    0.1604   0.2275  -0.0565   0.0885  -0.0857   0.01    3.0
2020/12/24 22:09:01.005   40.097020386 -105.147250560  1578.3504   2  21   0.1156    0.1588   0.2235  -0.0563   0.0873  -0.0846   0.00    3.0
2020/12/24 22:09:02.005   40.097020393 -105.147250617  1578.3523   2  21   0.1137    0.1572   0.2196  -0.0561   0.0861  -0.0835   0.00    1.8
2020/12/24 22:09:03.005   40.097023893 -105.147249782  1578.0996   1  21   0.0047    0.0045   0.0095   0.0006   0.0035  -0.0016   0.00    3.0
2020/12/24 22:09:04.005   40.097023900 -105.147249791  1578.0965   1  21   0.0047    0.0045   0.0095   0.0006   0.0035  -0.0016   0.00    3.0
2020/12/24 22:09:05.005   40.097020455 -105.147250832  1578.3653   2  21   0.1082    0.1527   0.2084  -0.0554   0.0827  -0.0805   0.00    3.0
2020/12/24 22:09:06.005   40.097020422 -105.147250889  1578.3655   2  21   0.1065    0.1512   0.2048  -0.0552   0.0816  -0.0795   0.00    1.5
2020/12/24 22:09:07.005   40.097020460 -105.147250952  1578.3678   2  21   0.1048    0.1498   0.2014  -0.0550   0.0806  -0.0785   0.00    1.5
2020/12/24 22:09:08.005   40.097020504 -105.147250967  1578.3669   2  21   0.1032    0.1484   0.1981  -0.0547   0.0796  -0.0775   0.01    1.4
2020/12/24 22:09:09.005   40.097020524 -105.147251018  1578.3629   2  21   0.1016    0.1470   0.1948  -0.0545   0.0786  -0.0766   0.01    1.5
2020/12/24 22:09:10.005   40.097020587 -105.147251043  1578.3638   2  21   0.1000    0.1457   0.1916  -0.0542   0.0776  -0.0756   0.01    1.0
2020/12/24 22:09:11.005   40.097020626 -105.147251114  1578.3538   2  21   0.0985    0.1444   0.1885  -0.0540   0.0767  -0.0747   0.01    1.0
2020/12/24 22:09:12.005   40.097020682 -105.147251166  1578.3471   2  21   0.0970    0.1431   0.1855  -0.0537   0.0758  -0.0738   0.01    1.1
2020/12/24 22:09:13.005   40.097020726 -105.147251234  1578.3409   2  21   0.0956    0.1418   0.1826  -0.0535   0.0749  -0.0729   0.01    1.1
2020/12/24 22:09:14.005   40.097020736 -105.147251296  1578.3308   2  21   0.0942    0.1406   0.1797  -0.0532   0.0740  -0.0720   0.01    1.3
2020/12/24 22:09:15.005   40.097020811 -105.147251334  1578.3279   2  21   0.0928    0.1393   0.1769  -0.0530   0.0732  -0.0711   0.01    1.1
2020/12/24 22:09:16.005   40.097020855 -105.147251356  1578.3260   2  21   0.0914    0.1381   0.1741  -0.0527   0.0723  -0.0703   0.00    1.0
2020/12/24 22:09:17.005   40.097020918 -105.147251366  1578.3179   2  21   0.0901    0.1370   0.1715  -0.0525   0.0715  -0.0695   0.00    1.1
2020/12/24 22:09:18.005   40.097021007 -105.147251408  1578.3043   2  21   0.0888    0.1358   0.1689  -0.0522   0.0707  -0.0686   0.00    1.0
2020/12/24 22:09:19.005   40.097021081 -105.147251452  1578.3000   2  21   0.0876    0.1346   0.1663  -0.0519   0.0700  -0.0678   0.00    1.0
2020/12/24 22:09:20.005   40.097021147 -105.147251450  1578.2996   2  21   0.0863    0.1335   0.1639  -0.0517   0.0692  -0.0670   0.00    1.5
2020/12/24 22:09:21.005   40.097021234 -105.147251484  1578.2932   2  21   0.0851    0.1324   0.1614  -0.0514   0.0684  -0.0662   0.00    1.3
2020/12/24 22:09:22.005   40.097021309 -105.147251496  1578.2848   2  21   0.0840    0.1313   0.1591  -0.0511   0.0677  -0.0655   0.00    1.4
2020/12/24 22:09:23.005   40.097021384 -105.147251515  1578.2833   2  21   0.0828    0.1302   0.1567  -0.0509   0.0670  -0.0647   0.00    1.1
2020/12/24 22:09:24.005   40.097021480 -105.147251517  1578.2784   2  21   0.0817    0.1292   0.1545  -0.0506   0.0663  -0.0640   0.00    1.5
2020/12/24 22:09:25.005   40.097021588 -105.147251550  1578.2698   2  21   0.0806    0.1281   0.1523  -0.0503   0.0656  -0.0632   0.00    2.7
2020/12/24 22:09:26.005   40.097021664 -105.147251587  1578.2595   2  21   0.0795    0.1271   0.1501  -0.0501   0.0650  -0.0625   0.00    2.7
2020/12/24 22:09:27.005   40.097021760 -105.147251622  1578.2452   2  21   0.0785    0.1261   0.1480  -0.0498   0.0643  -0.0618   0.00    2.2
2020/12/24 22:09:28.005   40.097021863 -105.147251680  1578.2392   2  21   0.0775    0.1251   0.1459  -0.0496   0.0637  -0.0611   0.00    2.7
2020/12/24 22:09:29.005   40.097021967 -105.147251748  1578.2247   2  21   0.0765    0.1241   0.1439  -0.0493   0.0630  -0.0604   0.00    2.6
2020/12/24 22:09:30.005   40.097022051 -105.147251808  1578.2114   2  21   0.0755    0.1232   0.1420  -0.0490   0.0624  -0.0597   0.00    2.7
2020/12/24 22:09:31.005   40.097022122 -105.147251896  1578.1971   2  21   0.0745    0.1222   0.1400  -0.0488   0.0618  -0.0591   0.00    2.6
2020/12/24 22:09:32.005   40.097022189 -105.147251949  1578.1857   2  21   0.0736    0.1213   0.1381  -0.0485   0.0612  -0.0584   0.01    2.9
2020/12/24 22:09:33.005   40.097022265 -105.147251988  1578.1737   2  21   0.0726    0.1203   0.1363  -0.0482   0.0606  -0.0578   0.01    2.1
2020/12/24 22:09:34.005   40.097022323 -105.147252050  1578.1567   2  21   0.0717    0.1194   0.1345  -0.0480   0.0601  -0.0571   0.01    2.6
2020/12/24 22:09:35.005   40.097022412 -105.147252090  1578.1406   2  21   0.0709    0.1185   0.1327  -0.0477   0.0595  -0.0565   0.01    2.1
2020/12/24 22:09:36.005   40.097022467 -105.147252118  1578.1227   2  21   0.0700    0.1176   0.1310  -0.0475   0.0590  -0.0559   0.01    2.3
2020/12/24 22:09:37.005   40.097022486 -105.147252178  1578.1079   2  21   0.0691    0.1167   0.1293  -0.0472   0.0584  -0.0553   0.01    2.5
2020/12/24 22:09:38.005   40.097023889 -105.147249795  1578.1053   1  21   0.0047    0.0045   0.0095   0.0006   0.0035  -0.0015   0.01    3.6
2020/12/24 22:09:39.005   40.097023892 -105.147249808  1578.1072   1  21   0.0047    0.0045   0.0095   0.0006   0.0035  -0.0015   0.01    3.6
2020/12/24 22:09:40.005   40.097023891 -105.147249806  1578.1057   1  21   0.0047    0.0045   0.0095   0.0006   0.0035  -0.0015   0.01    3.5
2020/12/24 22:09:41.005   40.097023894 -105.147249802  1578.1069   1  21   0.0047    0.0045   0.0095   0.0006   0.0035  -0.0015   0.01    3.5
2020/12/24 22:09:42.005   40.097023893 -105.147249800  1578.1073   1  21   0.0047    0.0045   0.0095   0.0006   0.0035  -0.0015   0.01    3.5
2020/12/24 22:09:43.005   40.097023898 -105.147249805  1578.1076   1  21   0.0047    0.0045   0.0095   0.0006   0.0035  -0.0015   0.01    3.5
2020/12/24 22:09:44.005   40.097023889 -105.147249810  1578.1073   1  21   0.0047    0.0045   0.0095   0.0006   0.0035  -0.0015   0.01    3.5
2020/12/24 22:09:45.005   40.097023883 -105.147249788  1578.1088   1  21   0.0047    0.0045   0.0095   0.0006   0.0035  -0.0015   0.01    3.5
2020/12/24 22:09:46.005   40.097023887 -105.147249798  1578.1091   1  21   0.0047    0.0045   0.0095   0.0006   0.0035  -0.0015   0.01    3.5
2020/12/24 22:09:47.005   40.097023887 -105.147249798  1578.1081   1  21   0.0047    0.0045   0.0095   0.0006   0.0035  -0.0015   0.01    3.5
2020/12/24 22:09:48.005   40.097023884 -105.147249796  1578.1098   1  21   0.0047    0.0045   0.0095   0.0006   0.0035  -0.0015   0.01    3.5
2020/12/24 22:09:49.006   40.097023887 -105.147249794  1578.1097   1  21   0.0047    0.0045   0.0095   0.0006   0.0035  -0.0015   0.01    3.4
2020/12/24 22:09:50.006   40.097023883 -105.147249801  1578.1097   1  21   0.0047    0.0045   0.0095   0.0006   0.0035  -0.0015   0.01    3.4
2020/12/24 22:09:51.006   40.097023894 -105.147249800  1578.1094   1  21   0.0047    0.0045   0.0095   0.0006   0.0035  -0.0015   0.01    3.4
2020/12/24 22:09:52.006   40.097023879 -105.147249792  1578.1123   1  21   0.0047    0.0045   0.0095   0.0006   0.0035  -0.0015   0.01    3.4
2020/12/24 22:09:53.006   40.097023876 -105.147249791  1578.1128   1  21   0.0047    0.0045   0.0095   0.0006   0.0035  -0.0015   0.01    3.4
2020/12/24 22:09:54.006   40.097023877 -105.147249797  1578.1108   1  21   0.0047    0.0045   0.0095   0.0006   0.0035  -0.0015   0.01    3.4
2020/12/24 22:09:55.006   40.097023885 -105.147249817  1578.1126   1  21   0.0047    0.0045   0.0095   0.0006   0.0035  -0.0015   0.01    3.4
2020/12/24 22:09:56.006   40.097023885 -105.147249815  1578.1130   1  21   0.0047    0.0045   0.0095   0.0006   0.0035  -0.0015   0.01    3.4
2020/12/24 22:09:57.006   40.097023886 -105.147249801  1578.1129   1  21   0.0047    0.0045   0.0095   0.0006   0.0035  -0.0015   0.01    3.4
2020/12/24 22:09:58.006   40.097023885 -105.147249808  1578.1116   1  21   0.0047    0.0045   0.0095   0.0006   0.0035  -0.0015   0.01    3.5
2020/12/24 22:09:59.006   40.097023877 -105.147249804  1578.1113   1  21   0.0047    0.0045   0.0095   0.0006   0.0035  -0.0015   0.01    3.5
2020/12/24 22:10:00.006   40.097023886 -105.147249808  1578.1132   1  21   0.0047    0.0045   0.0095   0.0006   0.0035  -0.0015   0.01    3.5
2020/12/24 22:10:01.006   40.097023886 -105.147249805  1578.1119   1  21   0.0047    0.0045   0.0095   0.0006   0.0035  -0.0015   0.01    3.5
2020/12/24 22:10:02.006   40.097023883 -105.147249802  1578.1119   1  21   0.0047    0.0045   0.0095   0.0006   0.0035  -0.0015   0.01    3.6
2020/12/24 22:10:03.006   40.097023882 -105.147249795  1578.1128   1  21   0.0047    0.0045   0.0095   0.0006   0.0035  -0.0015   0.01    3.6
2020/12/24 22:10:04.006   40.097023886 -105.147249807  1578.1109   1  21   0.0047    0.0045   0.0095   0.0006   0.0035  -0.0015   0.01    3.6
2020/12/24 22:10:05.006   40.097023887 -105.147249801  1578.1124   1  21   0.0047    0.0045   0.0095   0.0006   0.0035  -0.0015   0.01    3.6
2020/12/24 22:10:06.006   40.097023885 -105.147249800  1578.1106   1  21   0.0047    0.0045   0.0095   0.0006   0.0035  -0.0015   0.01    3.7
2020/12/24 22:10:07.006   40.097023886 -105.147249794  1578.1115   1  21   0.0047    0.0045   0.0095   0.0006   0.0035  -0.0015   0.01    3.7
2020/12/24 22:10:08.006   40.097023881 -105.147249790  1578.1119   1  21   0.0047    0.0045   0.0095   0.0006   0.0035  -0.0015   0.01    3.7
2020/12/24 22:10:09.006   40.097023885 -105.147249797  1578.1114   1  21   0.0047    0.0045   0.0095   0.0006   0.0035  -0.0015   0.01    3.7
2020/12/24 22:10:10.006   40.097023885 -105.147249786  1578.1128   1  21   0.0047    0.0045   0.0095   0.0006   0.0035  -0.0015   0.01    3.8
2020/12/24 22:10:11.006   40.097023894 -105.147249783  1578.1122   1  21   0.0047    0.0045   0.0095   0.0006   0.0035  -0.0015   0.01    3.8
2020/12/24 22:10:12.006   40.097023898 -105.147249786  1578.1127   1  21   0.0047    0.0045   0.0095   0.0006   0.0035  -0.0015   0.01    3.8
2020/12/24 22:10:13.006   40.097023879 -105.147249788  1578.1125   1  21   0.0047    0.0045   0.0095   0.0006   0.0035  -0.0015   0.01    3.8
2020/12/24 22:10:14.006   40.097023888 -105.147249777  1578.1123   1  21   0.0047    0.0045   0.0095   0.0006   0.0035  -0.0014   0.01    3.9
2020/12/24 22:10:15.006   40.097023880 -105.147249782  1578.1134   1  21   0.0047    0.0045   0.0095   0.0006   0.0035  -0.0014   0.01    3.9
2020/12/24 22:10:16.006   40.097023882 -105.147249776  1578.1129   1  21   0.0047    0.0045   0.0095   0.0006   0.0035  -0.0014   0.01    3.9
2020/12/24 22:10:17.006   40.097023876 -105.147249776  1578.1131   1  21   0.0047    0.0045   0.0095   0.0006   0.0035  -0.0014   0.01    3.9
2020/12/24 22:10:18.006   40.097023893 -105.147249780  1578.1121   1  21   0.0047    0.0045   0.0095   0.0006   0.0035  -0.0014   0.01    4.0
2020/12/24 22:10:19.006   40.097023887 -105.147249779  1578.1117   1  21   0.0047    0.0045   0.0095   0.0006   0.0035  -0.0014   0.01    4.0
2020/12/24 22:10:20.006   40.097023876 -105.147249769  1578.1130   1  21   0.0047    0.0045   0.0095   0.0006   0.0035  -0.0014   0.01    4.0
2020/12/24 22:10:21.006   40.097023885 -105.147249763  1578.1127   1  21   0.0047    0.0045   0.0095   0.0006   0.0035  -0.0014   0.01    4.0
2020/12/24 22:10:22.006   40.097023874 -105.147249768  1578.1135   1  21   0.0047    0.0045   0.0095   0.0006   0.0035  -0.0014   0.01    4.0
2020/12/24 22:10:23.006   40.097023873 -105.147249762  1578.1107   1  21   0.0047    0.0045   0.0095   0.0006   0.0035  -0.0014   0.01    4.0
2020/12/24 22:10:24.006   40.097023881 -105.147249779  1578.1123   1  21   0.0047    0.0045   0.0095   0.0006   0.0035  -0.0014   0.01    4.1
2020/12/24 22:10:25.006   40.097023866 -105.147249757  1578.1119   1  21   0.0047    0.0045   0.0095   0.0006   0.0035  -0.0014   0.01    4.1
2020/12/24 22:10:26.006   40.097023873 -105.147249757  1578.1122   1  21   0.0047    0.0045   0.0095   0.0006   0.0035  -0.0014   0.01    4.1
2020/12/24 22:10:27.006   40.097023869 -105.147249761  1578.1126   1  21   0.0047    0.0045   0.0095   0.0006   0.0035  -0.0014   0.01    4.1
2020/12/24 22:10:28.006   40.097023869 -105.147249765  1578.1111   1  21   0.0047    0.0045   0.0095   0.0006   0.0035  -0.0014   0.01    4.1
2020/12/24 22:10:29.006   40.097023859 -105.147249751  1578.1134   1  21   0.0047    0.0045   0.0095   0.0006   0.0035  -0.0014   0.01    4.2
2020/12/24 22:10:30.006   40.097023870 -105.147249743  1578.1145   1  21   0.0047    0.0045   0.0095   0.0006   0.0035  -0.0014   0.01    4.2
2020/12/24 22:10:31.006   40.097023874 -105.147249744  1578.1132   1  21   0.0047    0.0045   0.0095   0.0006   0.0035  -0.0014   0.01    4.2
2020/12/24 22:10:32.006   40.097023884 -105.147249752  1578.1136   1  21   0.0047    0.0045   0.0095   0.0006   0.0035  -0.0014   0.01    4.2
2020/12/24 22:10:33.006   40.097023877 -105.147249748  1578.1157   1  21   0.0047    0.0045   0.0095   0.0006   0.0035  -0.0014   0.01    4.2
2020/12/24 22:10:34.006   40.097023874 -105.147249751  1578.1129   1  21   0.0047    0.0045   0.0095   0.0006   0.0035  -0.0014   0.01    4.2
2020/12/24 22:10:35.006   40.097023861 -105.147249764  1578.1134   1  21   0.0047    0.0045   0.0095   0.0006   0.0035  -0.0014   0.01    4.3
2020/12/24 22:10:36.006   40.097023871 -105.147249752  1578.1160   1  21   0.0047    0.0045   0.0095   0.0006   0.0035  -0.0014   0.01    4.3
2020/12/24 22:10:37.006   40.097023856 -105.147249744  1578.1146   1  21   0.0047    0.0045   0.0095   0.0006   0.0035  -0.0014   0.01    4.3
2020/12/24 22:10:38.006   40.097023866 -105.147249750  1578.1167   1  21   0.0047    0.0045   0.0095   0.0006   0.0035  -0.0014   0.01    4.3
2020/12/24 22:10:39.006   40.097023861 -105.147249749  1578.1177   1  21   0.0047    0.0045   0.0095   0.0006   0.0035  -0.0014   0.01    4.3
2020/12/24 22:10:40.006   40.097023869 -105.147249743  1578.1172   1  21   0.0047    0.0045   0.0095   0.0006   0.0035  -0.0014   0.01    4.3
2020/12/24 22:10:41.006   40.097023863 -105.147249745  1578.1165   1  21   0.0047    0.0045   0.0095   0.0006   0.0035  -0.0014   0.01    4.3
2020/12/24 22:10:42.006   40.097023860 -105.147249745  1578.1146   1  21   0.0047    0.0045   0.0095   0.0006   0.0035  -0.0014   0.01    4.3
2020/12/24 22:10:43.006   40.097023853 -105.147249754  1578.1130   1  21   0.0047    0.0045   0.0095   0.0006   0.0035  -0.0014   0.01    4.3
2020/12/24 22:10:44.006   40.097023862 -105.147249736  1578.1170   1  21   0.0047    0.0045   0.0095   0.0006   0.0035  -0.0014   0.01    4.4
2020/12/24 22:10:45.006   40.097023851 -105.147249744  1578.1168   1  21   0.0047    0.0045   0.0095   0.0006   0.0035  -0.0014   0.01    4.4
2020/12/24 22:10:46.006   40.097023858 -105.147249746  1578.1157   1  21   0.0047    0.0045   0.0095   0.0006   0.0035  -0.0014   0.01    4.4
2020/12/24 22:10:47.006   40.097023857 -105.147249736  1578.1167   1  21   0.0047    0.0045   0.0095   0.0006   0.0035  -0.0014   0.01    4.4
2020/12/24 22:10:48.006   40.097023856 -105.147249738  1578.1168   1  21   0.0047    0.0045   0.0095   0.0006   0.0035  -0.0014   0.01    4.4
2020/12/24 22:10:49.006   40.097023845 -105.147249737  1578.1157   1  21   0.0047    0.0045   0.0095   0.0006   0.0035  -0.0014   0.01    4.4
2020/12/24 22:10:50.006   40.097023853 -105.147249703  1578.1227   1  21   0.0047    0.0045   0.0095   0.0006   0.0035  -0.0014   0.01    3.0
2020/12/24 22:10:51.006   40.097023862 -105.147249701  1578.1224   1  21   0.0047    0.0045   0.0094   0.0006   0.0035  -0.0014   0.01    3.0
2020/12/24 22:10:52.006   40.097023853 -105.147249711  1578.1211   1  21   0.0047    0.0045   0.0094   0.0006   0.0035  -0.0014   0.01    3.0
2020/12/24 22:10:53.006   40.097023847 -105.147249706  1578.1225   1  21   0.0047    0.0045   0.0094   0.0006   0.0035  -0.0014   0.01    3.0
2020/12/24 22:10:54.006   40.097023866 -105.147249707  1578.1238   1  21   0.0047    0.0045   0.0094   0.0006   0.0035  -0.0014   0.01    3.0
2020/12/24 22:10:55.006   40.097023862 -105.147249696  1578.1240   1  21   0.0047    0.0045   0.0094   0.0006   0.0035  -0.0014   0.01    3.0
2020/12/24 22:10:56.006   40.097023847 -105.147249705  1578.1226   1  21   0.0047    0.0045   0.0094   0.0006   0.0035  -0.0014   0.01    3.0
2020/12/24 22:10:57.006   40.097023850 -105.147249696  1578.1231   1  21   0.0047    0.0045   0.0094   0.0006   0.0035  -0.0014   0.01    3.0
2020/12/24 22:10:58.006   40.097023862 -105.147249699  1578.1242   1  21   0.0047    0.0045   0.0094   0.0006   0.0035  -0.0014   0.01    3.0
2020/12/24 22:10:59.006   40.097023856 -105.147249712  1578.1226   1  21   0.0047    0.0045   0.0094   0.0006   0.0035  -0.0014   0.01    3.1
2020/12/24 22:11:00.006   40.097023849 -105.147249697  1578.1261   1  21   0.0047    0.0045   0.0094   0.0006   0.0035  -0.0014   0.01    3.1
2020/12/24 22:11:01.006   40.097023854 -105.147249698  1578.1220   1  21   0.0047    0.0045   0.0094   0.0006   0.0035  -0.0014   0.01    3.1
2020/12/24 22:11:02.006   40.097023837 -105.147249688  1578.1234   1  21   0.0047    0.0045   0.0094   0.0006   0.0035  -0.0014   0.01    3.1
2020/12/24 22:11:03.006   40.097023859 -105.147249694  1578.1244   1  21   0.0047    0.0045   0.0094   0.0006   0.0035  -0.0014   0.01    3.1
2020/12/24 22:11:04.006   40.097023855 -105.147249700  1578.1259   1  21   0.0047    0.0045   0.0094   0.0006   0.0035  -0.0014   0.01    3.1
2020/12/24 22:11:05.006   40.097023861 -105.147249703  1578.1225   1  21   0.0047    0.0045   0.0094   0.0006   0.0035  -0.0014   0.01    3.1
2020/12/24 22:11:06.006   40.097023853 -105.147249715  1578.1225   1  21   0.0047    0.0045   0.0094   0.0006   0.0035  -0.0014   0.01    3.1
2020/12/24 22:11:07.006   40.097023853 -105.147249705  1578.1257   1  21   0.0047    0.0045   0.0094   0.0006   0.0035  -0.0013   0.01    3.1
2020/12/24 22:11:08.006   40.097023864 -105.147249707  1578.1241   1  21   0.0047    0.0045   0.0094   0.0006   0.0035  -0.0013   0.01    3.1
2020/12/24 22:11:09.006   40.097023865 -105.147249710  1578.1255   1  21   0.0047    0.0045   0.0094   0.0006   0.0035  -0.0013   0.01    3.1
2020/12/24 22:11:10.006   40.097023858 -105.147249707  1578.1290   1  21   0.0047    0.0045   0.0094   0.0006   0.0035  -0.0013   0.01    3.1
2020/12/24 22:11:11.006   40.097023854 -105.147249699  1578.1246   1  21   0.0047    0.0045   0.0094   0.0006   0.0035  -0.0013   0.01    3.1
2020/12/24 22:11:12.006   40.097023846 -105.147249706  1578.1265   1  21   0.0047    0.0045   0.0094   0.0006   0.0035  -0.0013   0.01    3.1
2020/12/24 22:11:13.006   40.097023840 -105.147249709  1578.1276   1  21   0.0047    0.0045   0.0094   0.0006   0.0035  -0.0013   0.01    3.1
2020/12/24 22:11:14.006   40.097023860 -105.147249711  1578.1257   1  21   0.0047    0.0045   0.0094   0.0006   0.0035  -0.0013   0.01    3.2
2020/12/24 22:11:15.006   40.097023850 -105.147249702  1578.1257   1  21   0.0047    0.0045   0.0094   0.0006   0.0035  -0.0013   0.01    3.2
2020/12/24 22:11:16.006   40.097023889 -105.147249690  1578.1239   1  21   0.0047    0.0045   0.0094   0.0006   0.0035  -0.0013   0.01    3.2
2020/12/24 22:11:17.006   40.097023898 -105.147249698  1578.1225   1  21   0.0047    0.0045   0.0094   0.0006   0.0035  -0.0013   0.01    3.2
2020/12/24 22:11:18.006   40.097023891 -105.147249680  1578.1269   1  21   0.0047    0.0045   0.0094   0.0006   0.0035  -0.0013   0.01    3.2
2020/12/24 22:11:19.006   40.097023890 -105.147249689  1578.1263   1  21   0.0047    0.0045   0.0094   0.0006   0.0035  -0.0013   0.01    3.2
2020/12/24 22:11:20.006   40.097023883 -105.147249686  1578.1271   1  21   0.0047    0.0045   0.0094   0.0006   0.0035  -0.0013   0.01    3.2
2020/12/24 22:11:21.006   40.097023876 -105.147249691  1578.1263   1  21   0.0047    0.0045   0.0094   0.0006   0.0035  -0.0013   0.01    3.2
2020/12/24 22:11:22.006   40.097023878 -105.147249687  1578.1265   1  21   0.0047    0.0045   0.0094   0.0006   0.0035  -0.0013   0.01    3.2
2020/12/24 22:11:23.006   40.097023882 -105.147249691  1578.1281   1  21   0.0047    0.0045   0.0094   0.0006   0.0035  -0.0013   0.01    3.2
2020/12/24 22:11:24.006   40.097023890 -105.147249693  1578.1257   1  21   0.0047    0.0045   0.0094   0.0006   0.0035  -0.0013   0.01    3.2
2020/12/24 22:11:25.006   40.097023877 -105.147249699  1578.1277   1  20   0.0047    0.0045   0.0095   0.0006   0.0033  -0.0013   0.01    3.2
2020/12/24 22:11:26.006   40.097023872 -105.147249655  1578.1288   1  20   0.0047    0.0045   0.0095   0.0006   0.0033  -0.0013   0.01    3.2
2020/12/24 22:11:27.006   40.097023972 -105.147248339  1578.1317   1  21   0.0047    0.0045   0.0094   0.0006   0.0035  -0.0013   0.01    3.2
2020/12/24 22:11:28.006   40.097024928 -105.147236340  1578.1523   1  21   0.0047    0.0045   0.0094   0.0006   0.0035  -0.0013   0.01    3.2
2020/12/24 22:11:29.006   40.097029161 -105.147206342  1578.2238   1  21   0.0047    0.0045   0.0094   0.0006   0.0035  -0.0013   0.01    3.2
2020/12/24 22:11:30.006   40.097036045 -105.147157111  1578.3101   1  19   0.0049    0.0046   0.0098  -0.0011   0.0030   0.0012   0.01    3.3
2020/12/24 22:11:31.006   40.097042026 -105.147091702  1578.4200   1  21   0.0049    0.0045   0.0096  -0.0010   0.0032   0.0011   0.01    3.3
2020/12/24 22:11:32.006   40.097045608 -105.147011570  1578.5276   1  20   0.0048    0.0046   0.0096  -0.0007   0.0032  -0.0003   0.01    3.3
2020/12/24 22:11:33.006   40.097047715 -105.146917892  1578.6482   1  21   0.0047    0.0046   0.0097  -0.0002   0.0030  -0.0009   0.01    3.4
2020/12/24 22:11:34.006   40.097048745 -105.146813975  1578.7516   1  20   0.0047    0.0046   0.0096   0.0000   0.0032  -0.0010   0.01    3.4
2020/12/24 22:11:35.006   40.097049638 -105.146701956  1578.8583   1  18   0.0052    0.0050   0.0115  -0.0021   0.0048  -0.0039   0.01    5.2
2020/12/24 22:11:36.006   40.097051230 -105.146587665  1578.9843   1  19   0.0052    0.0050   0.0115  -0.0021   0.0047  -0.0039   0.01    5.4
2020/12/24 22:11:37.006   40.097052704 -105.146470908  1579.1467   1  19   0.0054    0.0052   0.0117  -0.0022   0.0043  -0.0037   0.01    4.6
2020/12/24 22:11:38.006   40.097053304 -105.146354708  1579.3126   1  18   0.0054    0.0051   0.0117  -0.0024   0.0045  -0.0036   0.01    6.0
2020/12/24 22:11:39.006   40.097052857 -105.146237961  1579.4638   1  18   0.0054    0.0051   0.0116  -0.0024   0.0046  -0.0035   0.01    6.2
2020/12/24 22:11:40.006   40.097050474 -105.146118902  1579.5647   1  19   0.0053    0.0050   0.0115  -0.0022   0.0047  -0.0037   0.01    6.4
2020/12/24 22:11:41.006   40.097045405 -105.145998895  1579.6829   1  21   0.0053    0.0051   0.0116  -0.0019   0.0046  -0.0040   0.01    5.7
2020/12/24 22:11:42.006   40.097038106 -105.145877841  1579.8206   1  20   0.0056    0.0052   0.0113  -0.0005   0.0036  -0.0030   0.01    6.2
2020/12/24 22:11:43.006   40.097028012 -105.145757849  1579.9578   1  20   0.0054    0.0050   0.0110  -0.0009   0.0036  -0.0026   0.01    6.3
2020/12/24 22:11:44.006   40.097014743 -105.145636119  1580.0812   1  20   0.0055    0.0051   0.0110   0.0009   0.0033  -0.0026   0.01    6.4
2020/12/24 22:11:45.006   40.096998465 -105.145513162  1580.2526   1  20   0.0065    0.0054   0.0120  -0.0028   0.0041  -0.0029   0.01   17.2
2020/12/24 22:11:46.006   40.096979801 -105.145386507  1580.5893   1  21   0.0064    0.0057   0.0131  -0.0014   0.0054   0.0029   0.01   17.1
2020/12/24 22:11:47.006   40.096960765 -105.145258036  1580.6494   1  21   0.0065    0.0077   0.0175  -0.0037   0.0097  -0.0050   0.01   17.0
2020/12/24 22:11:48.006   40.096941672 -105.145126557  1580.8137   1  21   0.0064    0.0074   0.0167  -0.0036   0.0093  -0.0051   0.01   13.9
2020/12/24 22:11:49.006   40.096925438 -105.144992821  1580.9681   1  19   0.0067    0.0073   0.0163  -0.0040   0.0088  -0.0048   0.01   13.8
2020/12/24 22:11:50.006   40.096915412 -105.144856504  1581.0888   1  19   0.0066    0.0088   0.0201  -0.0035   0.0117  -0.0038   0.01   13.8
2020/12/24 22:11:51.006   40.096910076 -105.144716345  1581.2548   1  21   0.0065    0.0077   0.0171  -0.0034   0.0096  -0.0035   0.01   13.8
2020/12/24 22:11:52.006   40.096906859 -105.144573101  1581.4564   1  21   0.0062    0.0068   0.0151  -0.0028   0.0081  -0.0032   0.01   13.8
2020/12/24 22:11:53.006   40.096905889 -105.144427609  1581.6531   1  21   0.0059    0.0063   0.0139  -0.0023   0.0072  -0.0023   0.01   13.8
2020/12/24 22:11:54.006   40.096906408 -105.144282061  1581.8777   1  21   0.0055    0.0060   0.0131  -0.0019   0.0066  -0.0019   0.01   13.9
2020/12/24 22:11:55.006   40.096907490 -105.144137355  1582.1090   1  21   0.0054    0.0057   0.0126  -0.0017   0.0062  -0.0016   0.01   13.9
2020/12/24 22:11:56.006   40.096908569 -105.143992545  1582.2591   1  19   0.0052    0.0057   0.0125  -0.0016   0.0058  -0.0023   0.01   13.9
2020/12/24 22:11:57.006   40.096909926 -105.143849041  1582.3626   1  18   0.0071    0.0060   0.0133  -0.0035   0.0049   0.0037   0.01   30.1
2020/12/24 22:11:58.006   40.096911628 -105.143708357  1582.4135   1  18   0.0086    0.0071   0.0135  -0.0024   0.0031   0.0037   0.01   30.1
2020/12/24 22:11:59.006   40.096913709 -105.143569730  1582.4595   1  20   0.0122    0.0085   0.0146   0.0070   0.0038  -0.0018   0.01   31.2
2020/12/24 22:12:00.006   40.096915739 -105.143433624  1582.4314   1  19   0.0116    0.0076   0.0164   0.0047   0.0058  -0.0066   0.01   31.2
2020/12/24 22:12:01.006   40.096917594 -105.143301031  1582.3754   1  21   0.0107    0.0069   0.0155   0.0038   0.0050  -0.0066   0.01   31.3
2020/12/24 22:12:02.006   40.096919056 -105.143168721  1582.3081   1  21   0.0094    0.0064   0.0141   0.0034   0.0047  -0.0054   0.01   31.3
2020/12/24 22:12:03.006   40.096920139 -105.143036379  1582.1859   1  20   0.0087    0.0062   0.0135   0.0031   0.0044  -0.0050   0.01   31.4
2020/12/24 22:12:04.006   40.096920471 -105.142904702  1581.9907   1  19   0.0094    0.0062   0.0136  -0.0015   0.0034  -0.0014   0.01   31.5
2020/12/24 22:12:05.006   40.096920731 -105.142775224  1581.7763   1  21   0.0081    0.0058   0.0132   0.0016   0.0041  -0.0033   0.01   31.7
2020/12/24 22:12:06.006   40.096921336 -105.142647259  1581.5838   1  21   0.0077    0.0056   0.0127   0.0017   0.0043  -0.0034   0.01   31.7
2020/12/24 22:12:07.006   40.096921764 -105.142519658  1581.4193   1  21   0.0076    0.0055   0.0126   0.0010   0.0042  -0.0029   0.01   31.8
2020/12/24 22:12:08.006   40.096921933 -105.142393057  1581.2772   1  20   0.0087    0.0057   0.0125  -0.0026   0.0039  -0.0005   0.01   31.9
2020/12/24 22:12:09.006   40.096922489 -105.142267456  1581.1636   1  20   0.0079    0.0054   0.0120  -0.0015   0.0041  -0.0022   0.01   32.1
2020/12/24 22:12:10.006   40.096923002 -105.142142229  1581.0171   1  21   0.0072    0.0053   0.0113   0.0006   0.0039   0.0004   0.01    3.6
2020/12/24 22:12:11.006   40.096922499 -105.142017636  1580.8476   1  21   0.0073    0.0053   0.0118  -0.0008   0.0044  -0.0029   0.01   32.4
2020/12/24 22:12:12.006   40.096921572 -105.141895709  1580.6679   1  21   0.0065    0.0051   0.0113   0.0013   0.0044  -0.0038   0.01    5.5
2020/12/24 22:12:13.006   40.096920905 -105.141783326  1580.4773   1  21   0.0066    0.0056   0.0118   0.0012   0.0035  -0.0033   0.01    6.1
2020/12/24 22:12:14.006   40.096920358 -105.141684608  1580.3253   1  18   0.0062    0.0054   0.0124  -0.0014   0.0054  -0.0050   0.01    9.7
2020/12/24 22:12:15.006   40.096919938 -105.141599072  1580.1829   1  19   0.0061    0.0054   0.0123  -0.0015   0.0054  -0.0049   0.01   10.7
2020/12/24 22:12:16.006   40.096920366 -105.141531183  1580.0770   1  21   0.0059    0.0052   0.0117  -0.0007   0.0049  -0.0044   0.01   11.9
2020/12/24 22:12:17.006   40.096920951 -105.141485845  1580.0047   1  21   0.0058    0.0059   0.0131  -0.0017   0.0064  -0.0048   0.01   12.8
2020/12/24 22:12:18.006   40.096921403 -105.141462319  1579.9673   1  21   0.0057    0.0055   0.0123  -0.0013   0.0057  -0.0044   0.01   13.9
2020/12/24 22:12:19.006   40.096921891 -105.141449858  1579.9433   1  21   0.0057    0.0054   0.0120  -0.0011   0.0053  -0.0042   0.01   14.7
2020/12/24 22:12:20.006   40.096925123 -105.141429875  1579.9003   1  21   0.0069    0.0064   0.0128   0.0034   0.0032  -0.0059   0.01   15.3
2020/12/24 22:12:21.006   40.096941806 -105.141397214  1579.7934   1  21   0.0096    0.0071   0.0138  -0.0055   0.0022   0.0032   0.01   15.9
2020/12/24 22:12:22.006   40.096977204 -105.141368954  1579.5075   1  21   0.0059    0.0054   0.0118   0.0012   0.0040  -0.0037   0.01   17.1
2020/12/24 22:12:23.006   40.097026431 -105.141352549  1579.0734   1  21   0.0049    0.0049   0.0102   0.0004   0.0038  -0.0009   0.01    4.2
2020/12/24 22:12:24.006   40.097087203 -105.141340096  1578.6416   1  20   0.0048    0.0052   0.0106  -0.0004   0.0048  -0.0019   0.01    3.1
2020/12/24 22:12:25.006   40.097155571 -105.141332876  1578.2212   1  21   0.0047    0.0052   0.0106  -0.0005   0.0048  -0.0019   0.01    3.2
2020/12/24 22:12:26.006   40.097228896 -105.141329873  1577.7695   1  20   0.0047    0.0055   0.0112   0.0006   0.0053  -0.0016   0.01    5.9
2020/12/24 22:12:27.006   40.097306302 -105.141328338  1577.3735   1  20   0.0047    0.0055   0.0112   0.0006   0.0053  -0.0016   0.01    6.0
2020/12/24 22:12:28.006   40.097387379 -105.141327620  1576.9299   1  21   0.0047    0.0054   0.0110   0.0007   0.0052  -0.0015   0.01    6.4
2020/12/24 22:12:29.006   40.097470698 -105.141329095  1576.4906   1  21   0.0047    0.0055   0.0111   0.0007   0.0051  -0.0014   0.01    6.7
2020/12/24 22:12:30.006   40.097555642 -105.141332020  1576.0530   1  21   0.0047    0.0055   0.0111   0.0007   0.0052  -0.0015   0.01    7.1
2020/12/24 22:12:31.006   40.097642618 -105.141334466  1575.5877   1  19   0.0049    0.0057   0.0123  -0.0013   0.0060  -0.0029   0.01   16.0
2020/12/24 22:12:32.006   40.097732059 -105.141336856  1574.9804   1  19   0.0055    0.0068   0.0156  -0.0034   0.0084  -0.0058   0.01    3.1
2020/12/24 22:12:33.006   40.097824968 -105.141337831  1574.4864   1  18   0.0059    0.0138   0.0305  -0.0060   0.0196  -0.0093   0.01   40.6
2020/12/24 22:12:34.006   40.097921608 -105.141338353  1573.9370   1  18   0.0059    0.0138   0.0305  -0.0060   0.0197  -0.0093   0.01   43.1
2020/12/24 22:12:35.006   40.098021356 -105.141338429  1573.4185   1  19   0.0057    0.0109   0.0242  -0.0049   0.0151  -0.0078   0.01   45.8
2020/12/24 22:12:36.006   40.098122979 -105.141338771  1572.8786   1  20   0.0059    0.0138   0.0304  -0.0060   0.0197  -0.0093   0.01   47.6
2020/12/24 22:12:37.006   40.098225104 -105.141338686  1572.3500   1  18   0.0054    0.0110   0.0240  -0.0042   0.0152  -0.0067   0.01   49.0
2020/12/24 22:12:38.006   40.098327837 -105.141337827  1571.9097   1  21   0.0052    0.0097   0.0207  -0.0031   0.0128  -0.0052   0.01   53.5
2020/12/24 22:12:39.006   40.098430820 -105.141334848  1571.4438   1  18   0.0052    0.0087   0.0194  -0.0025   0.0115  -0.0038   0.01   58.4
2020/12/24 22:12:40.006   40.098534495 -105.141330700  1570.8825   1  17   0.0055    0.0064   0.0134   0.0021   0.0058  -0.0019   0.01    3.5
2020/12/24 22:12:41.006   40.098639027 -105.141326892  1570.3363   1  19   0.0058    0.0064   0.0136   0.0011   0.0050   0.0017   0.01    3.9
2020/12/24 22:12:42.006   40.098744184 -105.141323945  1569.8453   1  20   0.0058    0.0063   0.0134   0.0010   0.0048   0.0016   0.01    4.3
2020/12/24 22:12:43.006   40.098849633 -105.141321467  1569.3779   1  19   0.0058    0.0063   0.0133   0.0009   0.0047   0.0015   0.01    4.7
2020/12/24 22:12:44.006   40.098954928 -105.141319220  1568.9488   1  20   0.0056    0.0057   0.0117   0.0010   0.0032  -0.0014   0.01    3.1
2020/12/24 22:12:45.006   40.099059753 -105.141316403  1568.5582   1  21   0.0056    0.0056   0.0113   0.0013   0.0030  -0.0014   0.01    3.2
2020/12/24 22:12:46.006   40.099163535 -105.141313718  1568.1757   1  21   0.0054    0.0054   0.0109   0.0016   0.0029  -0.0021   0.01    3.3
2020/12/24 22:12:47.006   40.099264822 -105.141311256  1567.7543   1  21   0.0053    0.0053   0.0104   0.0018   0.0030  -0.0026   0.01    3.8
2020/12/24 22:12:48.006   40.099364691 -105.141310059  1567.3029   1  18   0.0055    0.0053   0.0105   0.0014   0.0025  -0.0020   0.01    4.0
2020/12/24 22:12:49.006   40.099464922 -105.141309982  1566.8604   1  21   0.0054    0.0056   0.0112   0.0014   0.0041  -0.0032   0.01    3.9
2020/12/24 22:12:50.006   40.099565557 -105.141311821  1566.4282   1  19   0.0051    0.0054   0.0110   0.0009   0.0043  -0.0026   0.01    3.8
2020/12/24 22:12:51.006   40.099665954 -105.141315402  1566.0568   1  20   0.0055    0.0059   0.0109   0.0026   0.0042  -0.0028   0.01    4.0
2020/12/24 22:12:52.006   40.099766434 -105.141320239  1565.6440   1  20   0.0063    0.0067   0.0114   0.0033   0.0026  -0.0037   0.01    4.1
2020/12/24 22:12:53.006   40.099866668 -105.141324721  1565.2514   1  20   0.0060    0.0063   0.0122   0.0019   0.0021  -0.0022   0.01    3.2
2020/12/24 22:12:54.006   40.099965521 -105.141328180  1564.8282   1  21   0.0059    0.0061   0.0121   0.0014   0.0025  -0.0019   0.01    3.3
2020/12/24 22:12:55.006   40.100062433 -105.141331780  1564.4317   1  21   0.0057    0.0059   0.0119   0.0016   0.0031  -0.0024   0.01    3.3
2020/12/24 22:12:56.006   40.100157192 -105.141334818  1564.1074   1  20   0.0053    0.0059   0.0118   0.0015   0.0044  -0.0019   0.01    3.4
2020/12/24 22:12:57.006   40.100251104 -105.141336822  1563.7748   1  21   0.0052    0.0057   0.0115   0.0013   0.0046  -0.0018   0.01    3.4
2020/12/24 22:12:58.006   40.100344860 -105.141337882  1563.3787   1  21   0.0051    0.0057   0.0115   0.0012   0.0046  -0.0018   0.01    3.5
2020/12/24 22:12:59.006   40.100439316 -105.141339884  1562.9040   1  21   0.0048    0.0055   0.0110   0.0005   0.0050  -0.0015   0.01    3.8
2020/12/24 22:13:00.006   40.100534562 -105.141345070  1562.4488   1  21   0.0048    0.0054   0.0110   0.0004   0.0051  -0.0015   0.01    3.9
2020/12/24 22:13:01.006   40.100630408 -105.141352944  1562.0352   1  21   0.0048    0.0054   0.0110   0.0003   0.0051  -0.0015   0.01    4.0
2020/12/24 22:13:02.006   40.100726625 -105.141360644  1561.6475   1  21   0.0047    0.0050   0.0103   0.0006   0.0043  -0.0013   0.01    4.1
2020/12/24 22:13:03.006   40.100823076 -105.141368660  1561.2673   1  21   0.0047    0.0048   0.0100   0.0006   0.0041  -0.0012   0.01    4.1
2020/12/24 22:13:04.006   40.100920128 -105.141376903  1560.8246   1  21   0.0047    0.0047   0.0099   0.0007   0.0039  -0.0012   0.01    4.1
2020/12/24 22:13:05.006   40.101017253 -105.141385522  1560.4588   1  21   0.0047    0.0047   0.0098   0.0007   0.0038  -0.0011   0.01    4.1
2020/12/24 22:13:06.006   40.101114568 -105.141392966  1560.0996   1  21   0.0047    0.0047   0.0097   0.0007   0.0038  -0.0011   0.01    4.1
2020/12/24 22:13:07.006   40.101211786 -105.141397820  1559.6778   1  21   0.0047    0.0046   0.0097   0.0007   0.0037  -0.0011   0.01    4.2
2020/12/24 22:13:08.006   40.101305096 -105.141399631  1559.3081   1  21   0.0047    0.0046   0.0097   0.0007   0.0037  -0.0011   0.01    4.3
2020/12/24 22:13:09.006   40.101388931 -105.141399036  1558.9312   1  20   0.0047    0.0047   0.0098   0.0008   0.0034  -0.0012   0.01    4.3
2020/12/24 22:13:10.006   40.101462421 -105.141396703  1558.5926   1  21   0.0047    0.0052   0.0106  -0.0006   0.0046  -0.0018   0.01    4.3
2020/12/24 22:13:11.006   40.101518929 -105.141394074  1558.2821   1  21   0.0047    0.0052   0.0106  -0.0006   0.0045  -0.0018   0.01    4.3
2020/12/24 22:13:12.006   40.101559481 -105.141392583  1558.0662   1  21   0.0047    0.0052   0.0106  -0.0005   0.0045  -0.0018   0.01    4.2
2020/12/24 22:13:13.006   40.101583174 -105.141392503  1557.9044   1  21   0.0047    0.0052   0.0106  -0.0006   0.0046  -0.0018   0.01    4.2
2020/12/24 22:13:14.006   40.101593714 -105.141392621  1557.8444   1  21   0.0075    0.0065   0.0124   0.0013   0.0049   0.0057   0.01    4.3
2020/12/24 22:13:15.006   40.101600189 -105.141392777  1557.7936   1  21   0.0057    0.0053   0.0099  -0.0001   0.0037   0.0006   0.01    6.1
2020/12/24 22:13:16.006   40.101600677 -105.141392785  1557.7909   1  21   0.0052    0.0050   0.0098   0.0005   0.0037  -0.0008   0.01    6.2
2020/12/24 22:13:17.006   40.101600674 -105.141392786  1557.7910   1  21   0.0051    0.0049   0.0097   0.0006   0.0037  -0.0009   0.01    6.2
2020/12/24 22:13:18.006   40.101600665 -105.141392788  1557.7887   1  21   0.0050    0.0048   0.0097   0.0006   0.0036  -0.0010   0.01    6.2
2020/12/24 22:13:19.006   40.101601857 -105.141392816  1557.7812   1  21   0.0049    0.0047   0.0096   0.0007   0.0036  -0.0010   0.01    6.2
2020/12/24 22:13:20.006   40.101612985 -105.141393903  1557.7018   1  21   0.0049    0.0047   0.0096   0.0007   0.0036  -0.0010   0.01    6.2
2020/12/24 22:13:21.006   40.101640472 -105.141404364  1557.6268   1  21   0.0048    0.0048   0.0097   0.0008   0.0033  -0.0011   0.01    6.2
2020/12/24 22:13:22.006   40.101669452 -105.141440685  1557.8254   1  21   0.0114    0.0114   0.0156   0.0091   0.0093   0.0042   0.01   19.2
2020/12/24 22:13:23.006   40.101685368 -105.141509823  1558.0728   1  21   0.0050    0.0062   0.0120   0.0022   0.0063   0.0025   0.01   19.5
2020/12/24 22:13:24.006   40.101691824 -105.141600250  1558.3700   1  21   0.0049    0.0056   0.0111   0.0018   0.0052   0.0018   0.01   19.8
2020/12/24 22:13:25.006   40.101694889 -105.141704615  1558.7136   1  21   0.0047    0.0053   0.0106   0.0016   0.0048   0.0011   0.01    4.4
2020/12/24 22:13:26.006   40.101695611 -105.141821960  1559.0897   1  21   0.0047    0.0052   0.0103   0.0015   0.0046   0.0009   0.01    4.8
2020/12/24 22:13:27.006   40.101696104 -105.141950660  1559.5225   1  21   0.0047    0.0050   0.0101   0.0014   0.0044   0.0007   0.01    5.1
2020/12/24 22:13:28.006   40.101696183 -105.142088034  1559.9996   1  21   0.0047    0.0050   0.0100   0.0014   0.0043   0.0005   0.01    5.4
2020/12/24 22:13:29.006   40.101696717 -105.142231676  1560.4754   1  21   0.0047    0.0049   0.0100   0.0013   0.0042   0.0004   0.01    5.7
2020/12/24 22:13:30.006   40.101698502 -105.142381377  1560.9990   1  21   0.0047    0.0049   0.0099   0.0013   0.0041   0.0002   0.01    5.9
2020/12/24 22:13:31.006   40.101701173 -105.142535542  1561.5949   1  21   0.0047    0.0048   0.0098   0.0012   0.0041  -0.0002   0.01    6.0
2020/12/24 22:13:32.006   40.101704530 -105.142693636  1562.1562   1  21   0.0047    0.0048   0.0098   0.0012   0.0040  -0.0004   0.01    6.1
2020/12/24 22:13:33.006   40.101708580 -105.142854284  1562.6312   1  21   0.0047    0.0048   0.0098   0.0012   0.0040  -0.0004   0.01    6.2
2020/12/24 22:13:34.006   40.101712002 -105.143016458  1563.0580   1  21   0.0047    0.0048   0.0097   0.0012   0.0039  -0.0005   0.01    6.3
2020/12/24 22:13:35.006   40.101715040 -105.143179598  1563.4298   1  21   0.0047    0.0047   0.0097   0.0011   0.0039  -0.0005   0.01    6.3
2020/12/24 22:13:36.006   40.101717833 -105.143345129  1563.7642   1  21   0.0047    0.0047   0.0097   0.0011   0.0039  -0.0006   0.01    6.4
2020/12/24 22:13:37.006   40.101718815 -105.143513124  1564.0767   1  21   0.0047    0.0047   0.0097   0.0011   0.0039  -0.0006   0.01    6.5
2020/12/24 22:13:38.006   40.101717977 -105.143680224  1564.3075   1  21   0.0047    0.0047   0.0097   0.0011   0.0038  -0.0006   0.01    6.4
2020/12/24 22:13:39.006   40.101716921 -105.143848705  1564.4824   1  21   0.0047    0.0047   0.0097   0.0011   0.0038  -0.0006   0.01    6.5
2020/12/24 22:13:40.006   40.101715591 -105.144017562  1564.5974   1  21   0.0046    0.0045   0.0095   0.0008   0.0035  -0.0008   0.01    3.0
2020/12/24 22:13:41.006   40.101714082 -105.144186020  1564.6730   1  21   0.0046    0.0045   0.0095   0.0008   0.0035  -0.0008   0.01    3.1
2020/12/24 22:13:42.006   40.101712338 -105.144354339  1564.6859   1  21   0.0046    0.0045   0.0095   0.0008   0.0035  -0.0009   0.01    3.2
2020/12/24 22:13:43.006   40.101710365 -105.144522166  1564.6440   1  21   0.0046    0.0045   0.0095   0.0008   0.0035  -0.0009   0.01    3.3
2020/12/24 22:13:44.006   40.101708492 -105.144689834  1564.6046   1  21   0.0046    0.0045   0.0095   0.0008   0.0035  -0.0009   0.01    3.4
2020/12/24 22:13:45.006   40.101706860 -105.144857500  1564.5351   1  21   0.0046    0.0045   0.0095   0.0008   0.0035  -0.0009   0.01    3.5
2020/12/24 22:13:46.006   40.101705463 -105.145025584  1564.3945   1  21   0.0046    0.0045   0.0095   0.0008   0.0035  -0.0009   0.01    3.5
2020/12/24 22:13:47.006   40.101704311 -105.145194317  1564.2158   1  21   0.0052    0.0046   0.0100  -0.0013   0.0030   0.0026   0.01    4.1
2020/12/24 22:13:48.006   40.101703576 -105.145363043  1564.2668   1  21   0.0051    0.0045   0.0098  -0.0009   0.0032   0.0021   0.01    4.2
2020/12/24 22:13:49.006   40.101701951 -105.145529819  1564.0958   1  21   0.0058    0.0048   0.0102  -0.0019   0.0025   0.0032   0.01    4.3
2020/12/24 22:13:50.006   40.101699131 -105.145695416  1563.7638   1  21   0.0065    0.0050   0.0107  -0.0029   0.0011   0.0044   0.01    4.4
2020/12/24 22:13:51.006   40.101698005 -105.145863343  1563.5878   1  21   0.0053    0.0047   0.0102  -0.0014   0.0033   0.0019   0.01   11.1
2020/12/24 22:13:52.006   40.101696212 -105.146031124  1563.2901   1  21   0.0053    0.0047   0.0103  -0.0015   0.0036   0.0003   0.01   11.7
2020/12/24 22:13:53.006   40.101694796 -105.146197826  1562.9773   1  21   0.0051    0.0046   0.0101  -0.0013   0.0036   0.0007   0.01   11.8
2020/12/24 22:13:54.006   40.101693169 -105.146363274  1562.5913   1  21   0.0051    0.0046   0.0102  -0.0013   0.0037  -0.0010   0.01   11.8
2020/12/24 22:13:55.006   40.101689765 -105.146529234  1562.2050   1  20   0.0051    0.0046   0.0100  -0.0011   0.0036  -0.0007   0.01   11.9
2020/12/24 22:13:56.006   40.101685595 -105.146695825  1561.8387   1  21   0.0050    0.0046   0.0100  -0.0010   0.0036  -0.0007   0.01   11.9
2020/12/24 22:13:57.006   40.101680541 -105.146862207  1561.4298   1  20   0.0054    0.0050   0.0114  -0.0022   0.0049  -0.0034   0.01    7.0
2020/12/24 22:13:58.006   40.101674098 -105.147028319  1561.0437   1  21   0.0054    0.0049   0.0109  -0.0021   0.0042  -0.0021   0.01    7.0
2020/12/24 22:13:59.006   40.101667109 -105.147194861  1560.5327   1  18   0.0056    0.0051   0.0115  -0.0025   0.0047  -0.0030   0.01    7.1
2020/12/24 22:14:00.006   40.101660594 -105.147362301  1560.0357   1  21   0.0054    0.0050   0.0114  -0.0023   0.0048  -0.0033   0.01    7.1
2020/12/24 22:14:01.006   40.101655481 -105.147530215  1559.5756   1  21   0.0051    0.0048   0.0108  -0.0018   0.0044  -0.0027   0.01    4.1
2020/12/24 22:14:02.006   40.101652088 -105.147698625  1559.1213   1  21   0.0050    0.0047   0.0105  -0.0015   0.0042  -0.0025   0.01    4.1
2020/12/24 22:14:03.006   40.101649634 -105.147866716  1558.6876   1  21   0.0050    0.0047   0.0104  -0.0014   0.0042  -0.0024   0.01    4.2
2020/12/24 22:14:04.006   40.101646762 -105.148026456  1558.2402   1  21   0.0050    0.0047   0.0104  -0.0013   0.0041  -0.0023   0.01    4.2
2020/12/24 22:14:05.006   40.101644214 -105.148172791  1557.8543   1  21   0.0049    0.0046   0.0101  -0.0011   0.0039  -0.0018   0.01    4.2
2020/12/24 22:14:06.006   40.101642397 -105.148303746  1557.5208   1  21   0.0048    0.0046   0.0099  -0.0009   0.0038  -0.0016   0.01    4.2
2020/12/24 22:14:07.006   40.101641309 -105.148422211  1557.2007   1  21   0.0047    0.0045   0.0098  -0.0006   0.0038  -0.0017   0.01    4.0
2020/12/24 22:14:08.006   40.101640466 -105.148526738  1556.9064   1  21   0.0047    0.0045   0.0098  -0.0005   0.0037  -0.0016   0.01    4.0
2020/12/24 22:14:09.006   40.101639366 -105.148617411  1556.6511   1  21   0.0048    0.0046   0.0102  -0.0010   0.0040  -0.0023   0.01    4.0
2020/12/24 22:14:10.006   40.101638352 -105.148696911  1556.4060   1  21   0.0048    0.0046   0.0102  -0.0010   0.0040  -0.0022   0.01    4.0
2020/12/24 22:14:11.006   40.101637311 -105.148765209  1556.1959   1  21   0.0048    0.0045   0.0099  -0.0007   0.0038  -0.0018   0.01    4.0
2020/12/24 22:14:12.006   40.101636352 -105.148822767  1556.0192   1  21   0.0047    0.0045   0.0098  -0.0005   0.0038  -0.0016   0.01    4.1
2020/12/24 22:14:13.006   40.101635415 -105.148870583  1555.8968   1  21   0.0047    0.0045   0.0097  -0.0004   0.0037  -0.0015   0.01    4.1
2020/12/24 22:14:14.006   40.101634627 -105.148909830  1555.8012   1  21   0.0047    0.0045   0.0097  -0.0003   0.0037  -0.0014   0.01    4.1
2020/12/24 22:14:15.006   40.101634045 -105.148937175  1555.7302   1  21   0.0047    0.0045   0.0097  -0.0002   0.0037  -0.0014   0.01    4.1
2020/12/24 22:14:16.006   40.101633761 -105.148950519  1555.6968   1  21   0.0047    0.0045   0.0096  -0.0001   0.0036  -0.0013   0.01    4.1
2020/12/24 22:14:17.006   40.101633653 -105.148955128  1555.6843   1  21   0.0047    0.0045   0.0096   0.0001   0.0036  -0.0013   0.01    4.7
2020/12/24 22:14:18.006   40.101633658 -105.148955194  1555.6862   1  21   0.0047    0.0045   0.0096   0.0002   0.0036  -0.0013   0.01    4.8
2020/12/24 22:14:19.006   40.101633643 -105.148955193  1555.6869   1  21   0.0047    0.0045   0.0096   0.0003   0.0036  -0.0012   0.01    4.8
2020/12/24 22:14:20.006   40.101633650 -105.148955183  1555.6859   1  21   0.0047    0.0044   0.0096   0.0003   0.0036  -0.0012   0.01    4.8
2020/12/24 22:14:21.006   40.101633543 -105.148958692  1555.6668   1  21   0.0047    0.0044   0.0096   0.0003   0.0036  -0.0012   0.01    4.8
2020/12/24 22:14:22.006   40.101633111 -105.148980576  1555.5555   1  21   0.0047    0.0057   0.0115  -0.0008   0.0056  -0.0020   0.01   22.7
2020/12/24 22:14:23.006   40.101632195 -105.149032950  1555.3641   1  21   0.0047    0.0050   0.0104  -0.0006   0.0045  -0.0017   0.01    7.4
2020/12/24 22:14:24.006   40.101630936 -105.149107494  1555.1077   1  18   0.0069    0.0062   0.0141   0.0018   0.0047  -0.0069   0.01    7.5
2020/12/24 22:14:25.006   40.101629037 -105.149201434  1554.7844   1  18   0.0067    0.0059   0.0136   0.0008   0.0050  -0.0064   0.01    8.6
2020/12/24 22:14:26.006   40.101626826 -105.149313342  1554.4274   1  20   0.0062    0.0057   0.0131  -0.0009   0.0050  -0.0057   0.01    8.7
2020/12/24 22:14:27.006   40.101624248 -105.149438837  1553.9891   1  20   0.0059    0.0055   0.0126  -0.0017   0.0053  -0.0052   0.01    8.8
2020/12/24 22:14:28.006   40.101622724 -105.149576565  1553.5612   1  21   0.0057    0.0053   0.0124  -0.0019   0.0053  -0.0050   0.01    8.9
2020/12/24 22:14:29.006   40.101621856 -105.149722557  1553.0658   1  21   0.0054    0.0051   0.0117  -0.0015   0.0048  -0.0043   0.01    9.1
2020/12/24 22:14:30.006   40.101621189 -105.149874213  1552.4102   1  20   0.0059    0.0052   0.0118  -0.0022   0.0042  -0.0028   0.01    6.5
2020/12/24 22:14:31.006   40.101620474 -105.150034812  1551.6736   1  21   0.0054    0.0051   0.0113  -0.0020   0.0041  -0.0019   0.01    4.4
2020/12/24 22:14:32.006   40.101619663 -105.150201511  1551.0046   1  20   0.0064    0.0056   0.0121   0.0011   0.0025  -0.0036   0.01    4.4
2020/12/24 22:14:33.006   40.101618356 -105.150372026  1550.3661   1  20   0.0057    0.0055   0.0115  -0.0015   0.0032  -0.0015   0.01    5.6
2020/12/24 22:14:34.006   40.101617532 -105.150546007  1549.7392   1  21   0.0057    0.0054   0.0114  -0.0015   0.0031  -0.0014   0.01    6.1
2020/12/24 22:14:35.006   40.101616592 -105.150723016  1549.1918   1  21   0.0054    0.0053   0.0109  -0.0007   0.0033  -0.0012   0.01    6.6
2020/12/24 22:14:36.006   40.101615593 -105.150902992  1548.6216   1  21   0.0053    0.0053   0.0107   0.0003   0.0033  -0.0011   0.01    6.8
2020/12/24 22:14:37.006   40.101614775 -105.151085448  1548.0529   1  21   0.0052    0.0050   0.0106  -0.0009   0.0034  -0.0007   0.01    6.9
2020/12/24 22:14:38.006   40.101614045 -105.151269894  1547.4671   1  21   0.0050    0.0049   0.0104  -0.0009   0.0035  -0.0013   0.01    6.9
2020/12/24 22:14:39.006   40.101613839 -105.151456562  1546.8709   1  21   0.0048    0.0049   0.0102  -0.0005   0.0036  -0.0019   0.01    3.1
2020/12/24 22:14:40.006   40.101613901 -105.151645294  1546.3995   1  21   0.0048    0.0048   0.0101  -0.0006   0.0036  -0.0018   0.01    3.8
2020/12/24 22:14:41.006   40.101614112 -105.151835953  1545.9881   1  21   0.0048    0.0048   0.0100  -0.0006   0.0036  -0.0017   0.01    4.5
2020/12/24 22:14:42.006   40.101614204 -105.152028801  1545.6284   1  21   0.0048    0.0047   0.0100  -0.0006   0.0037  -0.0017   0.01    5.2
2020/12/24 22:14:43.006   40.101614183 -105.152222625  1545.2828   1  21   0.0048    0.0047   0.0099  -0.0006   0.0037  -0.0016   0.01    5.8
2020/12/24 22:14:44.006   40.101615122 -105.152415063  1544.9731   1  21   0.0048    0.0047   0.0099  -0.0006   0.0037  -0.0016   0.01    6.5
2020/12/24 22:14:45.006   40.101616552 -105.152606515  1544.7026   1  21   0.0047    0.0047   0.0100  -0.0005   0.0035  -0.0016   0.01    7.2
2020/12/24 22:14:46.006   40.101617297 -105.152796952  1544.4090   1  21   0.0047    0.0047   0.0099  -0.0005   0.0035  -0.0016   0.01    7.8
2020/12/24 22:14:47.006   40.101617399 -105.152985804  1544.0998   1  21   0.0047    0.0047   0.0099  -0.0004   0.0035  -0.0016   0.01    8.0
2020/12/24 22:14:48.006   40.101617089 -105.153173001  1543.8392   1  21   0.0047    0.0046   0.0098  -0.0005   0.0036  -0.0015   0.01    8.1
2020/12/24 22:14:49.006   40.101616482 -105.153359551  1543.6055   1  21   0.0047    0.0046   0.0098  -0.0005   0.0036  -0.0015   0.01    8.2
2020/12/24 22:14:50.006   40.101616406 -105.153545654  1543.3633   1  21   0.0047    0.0046   0.0098  -0.0005   0.0036  -0.0014   0.01    8.3
2020/12/24 22:14:51.006   40.101616990 -105.153731337  1543.1195   1  20   0.0047    0.0052   0.0107  -0.0012   0.0049  -0.0020   0.01    8.4
2020/12/24 22:14:52.006   40.101617920 -105.153914966  1543.0153   1  18   0.0052    0.0063   0.0122  -0.0017   0.0061  -0.0038   0.01    8.5
2020/12/24 22:14:53.006   40.101619047 -105.154094116  1542.9966   1  19   0.0071    0.0065   0.0156  -0.0031   0.0077  -0.0070   0.01    6.9
2020/12/24 22:14:54.006   40.101620296 -105.154259041  1542.9907   1  19   0.0219    0.0218   0.0196   0.0203   0.0038  -0.0117   0.01    7.0
2020/12/24 22:14:55.006   40.101620956 -105.154404396  1542.9683   1  21   0.0135    0.0095   0.0181   0.0091  -0.0068  -0.0128   0.01    7.0
2020/12/24 22:14:56.006   40.101621804 -105.154521925  1542.9470   1  20   0.0290    0.0283   0.0203   0.0272   0.0115  -0.0062   0.01    7.0
2020/12/24 22:14:57.006   40.101619495 -105.154609758  1542.9712   2  20   0.0168    0.0129   0.0217   0.0114   0.0072  -0.0077   0.01    1.1
2020/12/24 22:14:58.006   40.101607043 -105.154676319  1542.9192   2  21   0.0154    0.0120   0.0202   0.0105   0.0054  -0.0095   0.01    1.1
2020/12/24 22:14:59.006   40.101575807 -105.154733039  1542.8342   2  21   0.0306    0.0221   0.0600   0.0226  -0.0245  -0.0374   0.01    1.5
2020/12/24 22:15:00.006   40.101519432 -105.154776900  1542.7760   2  21   0.0270    0.0192   0.0479   0.0195  -0.0232  -0.0321   0.01    1.1
